stop_id,stop_code,stop_name,stop_desc,stop_lat,stop_lon,zone_id,stop_url,location_type,parent_station,stop_timezone,wheelchair_boarding
2-2,,福島駅東口,,37.754883,140.460689,Z2-2,,0,,,
2-3,,福島駅東口,,37.754831,140.460694,Z2-3,,0,,,
2-5,,福島駅東口,,37.754647,140.460711,Z2-5,,0,,,
2-6,,福島駅東口,,37.754500,140.460767,Z2-6,,0,,,
2-7,,福島駅東口,,37.754497,140.460956,Z2-7,,0,,,
2-8,,福島駅東口,,37.754639,140.461000,Z2-8,,0,,,
2-9,,福島駅東口,,37.754782,140.460962,Z2-9,,0,,,
2-10,,福島駅東口,,37.754848,140.460945,Z2-10,,0,,,
2-11,,福島駅東口,,37.754661,140.460920,Z2-11,,0,,,
2-12,,福島駅東口,,37.754561,140.461078,Z2-12,,0,,,
2-13,,福島駅東口,あづま陸橋上,37.752819,140.460779,Z2-13,,0,,,
2-14,,福島駅東口,あづま陸橋上,37.752953,140.460754,Z2-14,,0,,,
3-1,,大町,,37.752858,140.465700,Z3-1,,0,,,
3-2,,大町,,37.752845,140.465553,Z3-2,,0,,,
3-3,,大町,,37.752858,140.465422,Z3-3,,0,,,
3-4,,大町,,37.752844,140.465244,Z3-4,,0,,,
4-1,,舟場町,,37.752421,140.471089,Z4-1,,0,,,
4-2,,舟場町,,37.752419,140.470989,Z4-2,,0,,,
4-4,,舟場町,,37.753207,140.471613,Z4-4,,0,,,
5-1,,豊田町,ファミリーマート側,37.756100,140.473089,Z5-1,,0,,,
5-2,,豊田町,三宅新聞店側,37.756097,140.473378,Z5-2,,0,,,
6-1,,東高校前,,37.758533,140.474533,Z6-1,,0,,,
6-2,,東高校前,,37.758767,140.474933,Z6-2,,0,,,
7-1,,福島市役所入口,福島市役所側,37.760623,140.475716,Z7-1,,0,,,
7-2,,福島市役所入口,ドコモショップ側,37.761394,140.476402,Z7-2,,0,,,
8-1,,年金事務所入口,,37.763579,140.477389,Z8-1,,0,,,
8-2,,年金事務所入口,,37.762808,140.477211,Z8-2,,0,,,
9-1,,競馬場前,第三小学校側,37.766300,140.479057,Z9-1,,0,,,
9-2,,競馬場前,競馬場側,37.766963,140.479733,Z9-2,,0,,,
10-1,,日赤前,ヨークベニマル側,37.769538,140.481162,Z10-1,,0,,,
10-2,,日赤前,マクドナルド側,37.769521,140.481415,Z10-2,,0,,,
11-1,,岩谷下,,37.772339,140.483211,Z11-1,,0,,,
11-2,,岩谷下,,37.772447,140.483496,Z11-2,,0,,,
11-3,,岩谷下,,37.772015,140.484036,Z11-3,,0,,,
11-4,,岩谷下,,37.771863,140.484312,Z11-4,,0,,,
12-1,,グランド前,,37.776447,140.484643,Z12-1,,0,,,
12-2,,グランド前,,37.776247,140.484801,Z12-2,,0,,,
13-1,,上本内,,37.780630,140.486012,Z13-1,,0,,,
13-2,,上本内,,37.781067,140.486357,Z13-2,,0,,,
14-1,,本内,,37.786601,140.487135,Z14-1,,0,,,
14-2,,本内,,37.786577,140.487319,Z14-2,,0,,,
15-1,,卸商団地入口,,37.793306,140.488487,Z15-1,,0,,,
15-2,,卸商団地入口,,37.793291,140.488689,Z15-2,,0,,,
16-1,,福島学院前,,37.798406,140.489884,Z16-1,,0,,,
16-2,,福島学院前,,37.798558,140.490122,Z16-2,,0,,,
17-1,,瀬上本町,,37.802557,140.492005,Z17-1,,0,,,
17-2,,瀬上本町,,37.801462,140.491461,Z17-2,,0,,,
18-1,,瀬上中央,,37.806055,140.494529,Z18-1,,0,,,
18-2,,瀬上中央,,37.804596,140.493699,Z18-2,,0,,,
19-1,,瀬上橋,,37.808984,140.496602,Z19-1,,0,,,
19-2,,瀬上橋,,37.808194,140.496254,Z19-2,,0,,,
20-1,,川原町,,37.812487,140.499249,Z20-1,,0,,,
20-2,,川原町,,37.811490,140.498674,Z20-2,,0,,,
21-1,,田町,,37.814911,140.501001,Z21-1,,0,,,
21-2,,田町,,37.813490,140.500177,Z21-2,,0,,,
22-1,,伊達長岡,,37.818815,140.503779,Z22-1,,0,,,
22-2,,伊達長岡,,37.818699,140.503893,Z22-2,,0,,,
23-1,,北部長岡,,37.823202,140.506986,Z23-1,,0,,,
23-2,,北部長岡,,37.823148,140.507202,Z23-2,,0,,,
24-1,,伏黒入口,,37.829867,140.513713,Z24-1,,0,,,
24-2,,伏黒入口,,37.829817,140.513923,Z24-2,,0,,,
24-3,,伏黒入口,,37.830551,140.515746,Z24-3,,0,,,
25-1,,桑折落合,,37.835958,140.519230,Z25-1,,0,,,
25-2,,桑折落合,,37.835818,140.519385,Z25-2,,0,,,
26-1,,桑折本町,,37.844050,140.518727,Z26-1,,0,,,
26-2,,桑折本町,,37.843961,140.518824,Z26-2,,0,,,
27-1,,梁川新道入口,,37.846939,140.518496,Z27-1,,0,,,
27-2,,梁川新道入口,,37.847415,140.518542,Z27-2,,0,,,
28-1,,桑折上町,,37.850163,140.518243,Z28-1,,0,,,
28-2,,桑折上町,,37.850589,140.518348,Z28-2,,0,,,
29-1,,桑折駅入口,,37.852819,140.518428,Z29-1,,0,,,
29-2,,桑折駅入口,,37.852320,140.518461,Z29-2,,0,,,
30-1,,桑折分庁舎前,,37.855328,140.522440,Z30-1,,0,,,
30-2,,桑折分庁舎前,,37.855150,140.522623,Z30-2,,0,,,
31-1,,八幡前,,37.860910,140.525902,Z31-1,,0,,,
31-2,,八幡前,,37.860960,140.526277,Z31-2,,0,,,
32-1,,国重,,37.868505,140.536044,Z32-1,,0,,,
32-2,,国重,,37.868393,140.536216,Z32-2,,0,,,
33-1,,藤田総合病院,,37.872554,140.541214,Z33-1,,0,,,
34-1,,藤田南,,37.874788,140.543574,Z34-1,,0,,,
34-2,,藤田南,,37.874776,140.543766,Z34-2,,0,,,
35-1,,藤田北,,37.876331,140.545354,Z35-1,,0,,,
36-1,,国見役場,,37.876247,140.548059,Z36-1,,0,,,
36-2,,国見役場,,37.876308,140.548052,Z36-2,,0,,,
46-1,,藤田駅前,,37.879251,140.540558,Z46-1,,0,,,
51-1,,伊達交番,,37.820216,140.503617,Z51-1,,0,,,
51-2,,伊達交番,,37.820299,140.503495,Z51-2,,0,,,
66-1,,聖光学院前,,37.821589,140.496597,Z66-1,,0,,,
66-2,,聖光学院前,,37.821528,140.497427,Z66-2,,0,,,
67-1,,伊達駅入口,,37.822239,140.492049,Z67-1,,0,,,
68-1,,増田,,37.823488,140.485410,Z68-1,,0,,,
69-1,,東湯野,,37.824847,140.476809,Z69-1,,0,,,
69-2,,東湯野,,37.824897,140.476876,Z69-2,,0,,,
70-1,,明神町,,37.827218,140.465206,Z70-1,,0,,,
72-1,,湯野駅,,37.829492,140.456319,Z72-1,,0,,,
73-1,,伊達総合支所,,37.819864,140.507089,Z73-1,,0,,,
73-2,,伊達総合支所,,37.819769,140.507207,Z73-2,,0,,,
74-1,,箱崎,,37.819829,140.516693,Z74-1,,0,,,
74-2,,箱崎,,37.819728,140.516077,Z74-2,,0,,,
75-1,,柳原,,37.820202,140.523611,Z75-1,,0,,,
75-2,,柳原,,37.820147,140.523668,Z75-2,,0,,,
76-1,,伏黒,,37.820456,140.528277,Z76-1,,0,,,
76-2,,伏黒,,37.820396,140.528228,Z76-2,,0,,,
77-1,,下の台,,37.821119,140.540263,Z77-1,,0,,,
77-2,,下の台,,37.821062,140.540509,Z77-2,,0,,,
78-1,,保原バスセンター,,37.820883,140.552566,Z78-1,,0,,,
79-1,,保原晦日町,,37.826132,140.555405,Z79-1,,0,,,
79-2,,保原晦日町,,37.825648,140.555306,Z79-2,,0,,,
80-1,,大和,,37.829753,140.562353,Z80-1,,0,,,
81-1,,六万坊,,37.832603,140.568464,Z81-1,,0,,,
81-2,,六万坊,,37.832777,140.568864,Z81-2,,0,,,
82-1,,大立目,,37.836026,140.573125,Z82-1,,0,,,
83-1,,八百地,,37.838680,140.577065,Z83-1,,0,,,
84-1,,柳田,,37.841939,140.583742,Z84-1,,0,,,
84-2,,柳田,,37.841495,140.583305,Z84-2,,0,,,
85-1,,町の内,,37.845275,140.587872,Z85-1,,0,,,
86-1,,新開,,37.847714,140.591525,Z86-1,,0,,,
86-2,,新開,,37.847863,140.591805,Z86-2,,0,,,
87-1,,大舘,,37.851429,140.599671,Z87-1,,0,,,
87-2,,大舘,,37.851344,140.599613,Z87-2,,0,,,
89-1,,梁川中町,,37.853799,140.606004,Z89-1,,0,,,
89-2,,梁川中町,,37.853717,140.606046,Z89-2,,0,,,
90-1,,福祉会館前,,37.857100,140.607578,Z90-1,,0,,,
90-2,,福祉会館前,,37.857226,140.607687,Z90-2,,0,,,
91-1,,梁川見付,,37.859542,140.608296,Z91-1,,0,,,
91-2,,梁川見付,,37.858968,140.608198,Z91-2,,0,,,
92-1,,塩野川,,37.863631,140.608189,Z92-1,,0,,,
93-1,,桃陵中学校,,37.831849,140.559352,Z93-1,,0,,,
94-1,,猫川,,37.834462,140.562395,Z94-1,,0,,,
106-1,,大正橋,,37.827435,140.521127,Z106-1,,0,,,
107-1,,東小学校入口,,37.826183,140.523372,Z107-1,,0,,,
108-1,,伏黒診療所前,,37.825746,140.526006,Z108-1,,0,,,
108-2,,伏黒診療所前,,37.825730,140.525516,Z108-2,,0,,,
109-1,,平前,,37.826036,140.530156,Z109-1,,0,,,
111-1,,上ヶ戸,,37.826482,140.534269,Z111-1,,0,,,
111-2,,上ヶ戸,,37.826356,140.532765,Z111-2,,0,,,
112-1,,小幡,,37.823401,140.543140,Z112-1,,0,,,
113-1,,旭町,,37.821040,140.545476,Z113-1,,0,,,
113-2,,旭町,,37.820959,140.545478,Z113-2,,0,,,
114-1,,保原五丁目,,37.819245,140.552919,Z114-1,,0,,,
114-2,,保原五丁目,,37.819633,140.553112,Z114-2,,0,,,
115-1,,保原四丁目,,37.818215,140.552640,Z115-1,,0,,,
115-2,,保原四丁目,,37.819057,140.552927,Z115-2,,0,,,
116-1,,保原二丁目,,37.815868,140.552074,Z116-1,,0,,,
117-1,,保原駅,,37.814722,140.555967,Z117-1,,0,,,
118-1,,村岡入口,,37.812911,140.562347,Z118-1,,0,,,
119-1,,平,,37.807822,140.570342,Z119-1,,0,,,
119-2,,平,,37.807320,140.570973,Z119-2,,0,,,
120-1,,柱田,,37.804960,140.573570,Z120-1,,0,,,
120-2,,柱田,,37.805567,140.573093,Z120-2,,0,,,
121-1,,柱沢小学校入口,,37.798025,140.573096,Z121-1,,0,,,
122-1,,武士沢,,37.794562,140.573433,Z122-1,,0,,,
122-2,,武士沢,,37.794549,140.573348,Z122-2,,0,,,
123-1,,四十九院,,37.789678,140.575829,Z123-1,,0,,,
123-2,,四十九院,,37.789137,140.576468,Z123-2,,0,,,
124-1,,取揚,,37.788297,140.581755,Z124-1,,0,,,
124-2,,取揚,,37.788397,140.580751,Z124-2,,0,,,
125-1,,掛田駅前,,37.785408,140.593331,Z125-1,,0,,,
127-1,,保原九丁目,,37.823313,140.554309,Z127-1,,0,,,
127-2,,保原九丁目,,37.823263,140.554383,Z127-2,,0,,,
128-1,,県教育センター,,37.802068,140.487310,Z128-1,,0,,,
128-2,,県教育センター,,37.802131,140.487433,Z128-2,,0,,,
129-1,,北信団地,,37.801466,140.483372,Z129-1,,0,,,
130-1,,東福島駅前,,37.801042,140.480522,Z130-1,,0,,,
130-2,,東福島駅前,,37.800919,140.480582,Z130-2,,0,,,
131-1,,大屋敷,,37.802725,140.477639,Z131-1,,0,,,
132-1,,小袋坂,,37.806407,140.481497,Z132-1,,0,,,
133-1,,団地入口,,37.809985,140.482048,Z133-1,,0,,,
134-1,,宮代団地,,37.811108,140.483436,Z134-1,,0,,,
135-1,,本内局前,,37.786904,140.485801,Z135-1,,0,,,
135-2,,本内局前,,37.786904,140.485319,Z135-2,,0,,,
136-1,,丸子,,37.785517,140.479845,Z136-1,,0,,,
136-2,,丸子,,37.785548,140.479660,Z136-2,,0,,,
137-1,,富塚,,37.785099,140.470401,Z137-1,,0,,,
137-2,,富塚,,37.785114,140.469600,Z137-2,,0,,,
138-1,,向原,,37.784870,140.465425,Z138-1,,0,,,
138-2,,向原,,37.784928,140.465332,Z138-2,,0,,,
149-1,,西町,,37.757022,140.461110,Z149-1,,0,,,
149-2,,西町,,37.756825,140.461272,Z149-2,,0,,,
150-1,,曽根田,,37.761196,140.459826,Z150-1,,0,,,
150-2,,曽根田,,37.761621,140.459613,Z150-2,,0,,,
151-1,,森合,,37.765152,140.456154,Z151-1,,0,,,
151-2,,森合,,37.766877,140.455129,Z151-2,,0,,,
152-1,,工業高校前,,37.768337,140.453788,Z152-1,,0,,,
152-2,,工業高校前,,37.768343,140.453890,Z152-2,,0,,,
153-1,,道下,,37.772763,140.450010,Z153-1,,0,,,
153-2,,道下,,37.772068,140.450749,Z153-2,,0,,,
154-1,,泉局前,,37.775174,140.447944,Z154-1,,0,,,
154-2,,泉局前,,37.775258,140.447992,Z154-2,,0,,,
155-1,,泉,,37.778385,140.445227,Z155-1,,0,,,
155-2,,泉,,37.778482,140.445256,Z155-2,,0,,,
156-1,,上松川,,37.783864,140.440551,Z156-1,,0,,,
156-2,,上松川,,37.782820,140.441558,Z156-2,,0,,,
165-1,,横町,,37.829932,140.451975,Z165-1,,0,,,
165-2,,横町,,37.829075,140.451461,Z165-2,,0,,,
166-1,,飯坂温泉駅,,37.830355,140.454523,Z166-1,,0,,,
170-1,,穴原,,37.843231,140.438647,Z170-1,,0,,,
171-1,,高清水,,37.854558,140.436499,Z171-1,,0,,,
172-1,,板橋,,37.865964,140.436445,Z172-1,,0,,,
173-1,,増沢,,37.872726,140.433682,Z173-1,,0,,,
173-2,,増沢,,37.872744,140.433734,Z173-2,,0,,,
174-1,,藤清水,,37.878367,140.433921,Z174-1,,0,,,
175-1,,軽井沢,,37.885109,140.435777,Z175-1,,0,,,
176-1,,白兎,,37.891374,140.435923,Z176-1,,0,,,
177-1,,滝野,,37.894340,140.434824,Z177-1,,0,,,
178-1,,下滝野,,37.896040,140.431458,Z178-1,,0,,,
179-1,,若葉町,,37.832936,140.453863,Z179-1,,0,,,
180-1,,茂庭小学校,,37.900029,140.431200,Z180-1,,0,,,
181-1,,田端,,37.904845,140.430410,Z181-1,,0,,,
182-1,,秋庭,,37.911307,140.426639,Z182-1,,0,,,
183-1,,茂庭局前,,37.915472,140.425936,Z183-1,,0,,,
184-1,,中茂庭,,37.917288,140.425267,Z184-1,,0,,,
193-1,,滝の町,,37.833975,140.452460,Z193-1,,0,,,
194-1,,花岡町,,37.834488,140.451447,Z194-1,,0,,,
195-1,,釜場,,37.835072,140.450371,Z195-1,,0,,,
196-1,,小滝,,37.836940,140.448540,Z196-1,,0,,,
197-1,,飯坂中原,,37.837624,140.446908,Z197-1,,0,,,
198-1,,中の内,,37.838782,140.444512,Z198-1,,0,,,
199-1,,毘沙門前,,37.840253,140.441997,Z199-1,,0,,,
200-1,,天王寺入口,,37.841907,140.439865,Z200-1,,0,,,
201-1,,東堀切,,37.833875,140.450593,Z201-1,,0,,,
202-1,,飯坂湯町,,37.833064,140.451715,Z202-1,,0,,,
203-1,,信陵中学校,,37.789931,140.435386,Z203-1,,0,,,
203-2,,信陵中学校,,37.789444,140.435880,Z203-2,,0,,,
204-1,,信陵支所,,37.793946,140.431930,Z204-1,,0,,,
204-2,,信陵支所,,37.793859,140.432088,Z204-2,,0,,,
205-1,,大出水,,37.799687,140.427076,Z205-1,,0,,,
205-2,,大出水,,37.799828,140.427042,Z205-2,,0,,,
206-1,,羽根通,,37.807685,140.420466,Z206-1,,0,,,
207-1,,座頭町,,37.810954,140.416997,Z207-1,,0,,,
208-1,,十六沼公園,,37.814094,140.414480,Z208-1,,0,,,
208-2,,十六沼公園,,37.814056,140.414542,Z208-2,,0,,,
209-1,,川子坂,,37.819414,140.415838,Z209-1,,0,,,
210-1,,中野不動尊入口,,37.823267,140.413317,Z210-1,,0,,,
211-1,,堰場,,37.825223,140.412064,Z211-1,,0,,,
211-2,,堰場,,37.825236,140.412143,Z211-2,,0,,,
212-1,,笹谷新町,,37.797014,140.424585,Z212-1,,0,,,
213-1,,三本木,,37.797449,140.415214,Z213-1,,0,,,
214-1,,水口,,37.797595,140.409917,Z214-1,,0,,,
215-1,,大笹生,,37.798342,140.402371,Z215-1,,0,,,
223-1,,北沢又,,37.783597,140.424344,Z223-1,,0,,,
224-1,,南部,,37.787805,140.420284,Z224-1,,0,,,
225-1,,上釜,,37.786945,140.414648,Z225-1,,0,,,
226-1,,綱島,,37.787711,140.410383,Z226-1,,0,,,
227-1,,荒古屋,,37.787987,140.403431,Z227-1,,0,,,
228-1,,清水田,,37.775848,140.442121,Z228-1,,0,,,
229-1,,熊の辻,,37.776438,140.438600,Z229-1,,0,,,
230-1,,玄場,,37.776989,140.431706,Z230-1,,0,,,
231-1,,道合,,37.777849,140.427472,Z231-1,,0,,,
232-1,,刑務所前,,37.779627,140.425703,Z232-1,,0,,,
232-2,,刑務所前,,37.779543,140.425755,Z232-2,,0,,,
233-1,,福島四小前,,37.759641,140.464161,Z233-1,,0,,,
233-2,,福島四小前,,37.759682,140.464323,Z233-2,,0,,,
234-1,,福島中央郵便局,,37.762532,140.464235,Z234-1,,0,,,
234-2,,福島中央郵便局,,37.763029,140.464404,Z234-2,,0,,,
235-1,,稲荷田,,37.774546,140.465062,Z235-1,,0,,,
235-2,,稲荷田,,37.774465,140.465437,Z235-2,,0,,,
236-1,,三本松,,37.780617,140.464528,Z236-1,,0,,,
236-2,,三本松,,37.780979,140.464641,Z236-2,,0,,,
237-1,,古屋敷,,37.785622,140.462766,Z237-1,,0,,,
237-2,,古屋敷,,37.783808,140.463636,Z237-2,,0,,,
238-1,,原田東,,37.791566,140.460641,Z238-1,,0,,,
238-2,,原田東,,37.791710,140.460818,Z238-2,,0,,,
246-1,,三河北町,,37.759248,140.455577,Z246-1,,0,,,
246-2,,三河北町,,37.759383,140.455663,Z246-2,,0,,,
247-1,,製作所前,,37.759709,140.453401,Z247-1,,0,,,
247-2,,製作所前,,37.759792,140.453810,Z247-2,,0,,,
248-1,,三河尻,,37.760711,140.450681,Z248-1,,0,,,
248-2,,三河尻,,37.760823,140.450472,Z248-2,,0,,,
249-1,,田中前,,37.761518,140.447890,Z249-1,,0,,,
249-2,,田中前,,37.761617,140.447724,Z249-2,,0,,,
250-1,,下八島田,,37.763364,140.442164,Z250-1,,0,,,
250-2,,下八島田,,37.763596,140.441722,Z250-2,,0,,,
251-1,,勝口前,,37.766521,140.434897,Z251-1,,0,,,
251-2,,勝口前,,37.766602,140.434851,Z251-2,,0,,,
252-1,,八島田,,37.767682,140.432392,Z252-1,,0,,,
253-1,,笹木野駅入口,,37.770466,140.426516,Z253-1,,0,,,
254-1,,萱場入口,,37.771779,140.424385,Z254-1,,0,,,
254-2,,萱場入口,,37.771722,140.424617,Z254-2,,0,,,
255-1,,長畑,,37.771164,140.414731,Z255-1,,0,,,
255-2,,長畑,,37.771544,140.416794,Z255-2,,0,,,
255-3,,長畑,,37.771150,140.415758,Z255-3,,0,,,
256-1,,山神,,37.770268,140.408330,Z256-1,,0,,,
257-1,,笹木野原,,37.769421,140.402809,Z257-1,,0,,,
258-1,,長沼,,37.768063,140.393306,Z258-1,,0,,,
259-1,,庭坂駅前,,37.770857,140.389461,Z259-1,,0,,,
260-1,,湯町,,37.771327,140.378489,Z260-1,,0,,,
261-1,,志田,,37.766608,140.370229,Z261-1,,0,,,
265-1,,内町,,37.771098,140.383997,Z265-1,,0,,,
266-1,,庭塚入口,,37.769987,140.385002,Z266-1,,0,,,
267-1,,日井古屋,,37.774682,140.419895,Z267-1,,0,,,
268-1,,鎌古屋,,37.777056,140.415140,Z268-1,,0,,,
269-1,,北萱場,,37.781351,140.409347,Z269-1,,0,,,
270-1,,萱場,,37.777395,140.405973,Z270-1,,0,,,
271-1,,新林,,37.776302,140.398217,Z271-1,,0,,,
272-1,,大原,,37.776055,140.393060,Z272-1,,0,,,
273-1,,運転免許センター,,37.776015,140.390198,Z273-1,,0,,,
274-1,,原の内,,37.776300,140.387005,Z274-1,,0,,,
274-2,,原の内,,37.776186,140.388284,Z274-2,,0,,,
275-1,,庭坂荒町,,37.775039,140.382203,Z275-1,,0,,,
277-1,,福島民報前,,37.753604,140.455467,Z277-1,,0,,,
277-2,,福島民報前,,37.754095,140.455667,Z277-2,,0,,,
277-3,,福島民報前,,37.752360,140.455263,Z277-3,,0,,,
278-1,,西部交番前,,37.755973,140.451213,Z278-1,,0,,,
278-2,,西部交番前,,37.756055,140.451105,Z278-2,,0,,,
279-1,,野田,,37.756509,140.447841,Z279-1,,0,,,
279-2,,野田,,37.756564,140.447945,Z279-2,,0,,,
280-1,,長泥,,37.757457,140.440525,Z280-1,,0,,,
280-2,,長泥,,37.757506,140.440698,Z280-2,,0,,,
281-1,,テレビユー福島,,37.758248,140.432855,Z281-1,,0,,,
281-2,,テレビユー福島,,37.758210,140.434090,Z281-2,,0,,,
282-1,,中屋敷,,37.758429,140.430606,Z282-1,,0,,,
282-2,,中屋敷,,37.758476,140.430955,Z282-2,,0,,,
283-1,,甘酒,,37.758280,140.426436,Z283-1,,0,,,
284-1,,吾妻支所,,37.758049,140.419472,Z284-1,,0,,,
284-2,,吾妻支所,,37.758100,140.420297,Z284-2,,0,,,
285-1,,竹の内,,37.758071,140.412937,Z285-1,,0,,,
285-2,,竹の内,,37.758076,140.413731,Z285-2,,0,,,
286-1,,上野寺,,37.758362,140.405701,Z286-1,,0,,,
287-1,,吾妻学習センター分館,,37.758796,140.397361,Z287-1,,0,,,
288-1,,二子塚,,37.758228,140.389659,Z288-1,,0,,,
289-1,,篠塚,,37.758833,140.386196,Z289-1,,0,,,
290-1,,中谷地,,37.758453,140.380774,Z290-1,,0,,,
291-1,,庭塚小学校,,37.758000,140.375926,Z291-1,,0,,,
292-1,,五十須場,,37.757534,140.372894,Z292-1,,0,,,
293-1,,姥堂,,37.756173,140.365044,Z293-1,,0,,,
294-1,,北林,,37.755653,140.361982,Z294-1,,0,,,
295-1,,上姥堂,,37.754954,140.356285,Z295-1,,0,,,
296-1,,信夫温泉,,37.749440,140.342096,Z296-1,,0,,,
297-1,,玉子湯,,37.752675,140.310472,Z297-1,,0,,,
298-1,,高湯,,37.752246,140.304548,Z298-1,,0,,,
298-2,,高湯,,37.752538,140.304590,Z298-2,,0,,,
299-1,,ハイランド前,,37.748938,140.305031,Z299-1,,0,,,
300-1,,太田口,,37.751602,140.457649,Z300-1,,0,,,
302-1,,八木田橋,,37.752146,140.453740,Z302-1,,0,,,
302-2,,八木田橋,,37.752245,140.453828,Z302-2,,0,,,
303-1,,八木田,,37.750620,140.447713,Z303-1,,0,,,
303-2,,八木田,,37.750682,140.447637,Z303-2,,0,,,
304-1,,北の内,,37.749985,140.440712,Z304-1,,0,,,
304-2,,北の内,,37.750170,140.441711,Z304-2,,0,,,
305-1,,国体記念体育館入口,,37.749620,140.436965,Z305-1,,0,,,
305-2,,国体記念体育館入口,,37.749716,140.437161,Z305-2,,0,,,
306-1,,高谷,,37.748756,140.429804,Z306-1,,0,,,
306-2,,高谷,,37.748832,140.429938,Z306-2,,0,,,
307-1,,仁井田,,37.749061,140.425530,Z307-1,,0,,,
307-2,,仁井田,,37.749045,140.425819,Z307-2,,0,,,
309-1,,北島,,37.750586,140.415419,Z309-1,,0,,,
310-1,,前畑,,37.748834,140.403341,Z310-1,,0,,,
311-1,,桜本,,37.747655,140.399466,Z311-1,,0,,,
312-1,,庄野,,37.744443,140.390902,Z312-1,,0,,,
313-1,,茶畑,,37.743382,140.387761,Z313-1,,0,,,
314-1,,水保,,37.742214,140.383833,Z314-1,,0,,,
315-1,,原の町,,37.745599,140.380476,Z315-1,,0,,,
316-1,,土船,,37.742947,140.373614,Z316-1,,0,,,
317-1,,福島一小前,,37.751626,140.467980,Z317-1,,0,,,
317-2,,福島一小前,,37.751408,140.467723,Z317-2,,0,,,
318-1,,県庁前,,37.750964,140.466944,Z318-1,,0,,,
319-1,,荒町,,37.747939,140.464703,Z319-1,,0,,,
319-2,,荒町,,37.747253,140.464496,Z319-2,,0,,,
320-1,,信夫橋,,37.741731,140.462733,Z320-1,,0,,,
320-2,,信夫橋,,37.742132,140.462736,Z320-2,,0,,,
320-3,,信夫橋,,37.742658,140.462236,Z320-3,,0,,,
320-4,,信夫橋,,37.742874,140.461684,Z320-4,,0,,,
321-1,,葉木立,,37.743803,140.456392,Z321-1,,0,,,
321-2,,葉木立,,37.743819,140.457458,Z321-2,,0,,,
322-1,,白家,,37.744000,140.451726,Z322-1,,0,,,
322-2,,白家,,37.744055,140.451870,Z322-2,,0,,,
323-1,,福島ふそう前,,37.744159,140.448104,Z323-1,,0,,,
323-2,,福島ふそう前,,37.744209,140.448420,Z323-2,,0,,,
324-1,,福島運輸支局,,37.744389,140.442969,Z324-1,,0,,,
324-2,,福島運輸支局,,37.744435,140.443372,Z324-2,,0,,,
325-1,,地蔵前,,37.744437,140.440726,Z325-1,,0,,,
325-2,,地蔵前,,37.744524,140.440922,Z325-2,,0,,,
326-1,,吉井田,,37.744105,140.433318,Z326-1,,0,,,
327-1,,道内,,37.743507,140.428396,Z327-1,,0,,,
327-2,,道内,,37.743538,140.428143,Z327-2,,0,,,
328-1,,戸の内,,37.742953,140.424318,Z328-1,,0,,,
328-2,,戸の内,,37.743079,140.424801,Z328-2,,0,,,
329-1,,成木,,37.740303,140.416830,Z329-1,,0,,,
329-2,,成木,,37.740479,140.417065,Z329-2,,0,,,
330-1,,下村,,37.739306,140.414383,Z330-1,,0,,,
330-2,,下村,,37.739362,140.414348,Z330-2,,0,,,
331-1,,権の守,,37.736961,140.407644,Z331-1,,0,,,
331-2,,権の守,,37.736953,140.407378,Z331-2,,0,,,
332-1,,第二日東入口,,37.736398,140.405653,Z332-1,,0,,,
332-2,,第二日東入口,,37.736305,140.405083,Z332-2,,0,,,
333-1,,吉の内,,37.735081,140.401100,Z333-1,,0,,,
334-1,,儘の上,,37.733029,140.395609,Z334-1,,0,,,
334-2,,儘の上,,37.732843,140.394878,Z334-2,,0,,,
335-1,,佐倉小学校,,37.731365,140.390754,Z335-1,,0,,,
336-1,,佐倉,,37.728226,140.384423,Z336-1,,0,,,
336-2,,佐倉,,37.728435,140.384443,Z336-2,,0,,,
336-3,,佐倉,,37.728056,140.383869,Z336-3,,0,,,
337-1,,佐倉局前,,37.725942,140.384039,Z337-1,,0,,,
338-1,,あらいクリニック前,,37.723880,140.384640,Z338-1,,0,,,
338-2,,あらいクリニック前,,37.723919,140.384550,Z338-2,,0,,,
339-1,,荒井,,37.721942,140.384680,Z339-1,,0,,,
339-2,,荒井,,37.721204,140.382802,Z339-2,,0,,,
340-1,,自衛隊入口,,37.719645,140.379213,Z340-1,,0,,,
340-2,,自衛隊入口,,37.719809,140.379436,Z340-2,,0,,,
341-1,,野村前,,37.718354,140.375927,Z341-1,,0,,,
342-1,,鷺,,37.715948,140.371224,Z342-1,,0,,,
342-2,,鷺,,37.715992,140.371159,Z342-2,,0,,,
343-1,,峠の原,,37.713062,140.368142,Z343-1,,0,,,
343-2,,峠の原,,37.713402,140.368229,Z343-2,,0,,,
344-1,,四季の里入口,,37.710333,140.366028,Z344-1,,0,,,
344-2,,四季の里入口,,37.709756,140.365416,Z344-2,,0,,,
345-1,,自治研修センター,,37.706824,140.362810,Z345-1,,0,,,
345-2,,自治研修センター,,37.706785,140.362670,Z345-2,,0,,,
346-1,,地蔵原,,37.704821,140.360852,Z346-1,,0,,,
347-1,,畜産試験場,,37.702438,140.355155,Z347-1,,0,,,
348-1,,一寸張,,37.699763,140.350106,Z348-1,,0,,,
349-1,,土湯温泉入口,,37.684495,140.332228,Z349-1,,0,,,
349-2,,土湯温泉入口,,37.684555,140.332131,Z349-2,,0,,,
350-1,,土湯温泉,,37.682208,140.326445,Z350-1,,0,,,
352-1,,杢玉,,37.726295,140.377701,Z352-1,,0,,,
353-1,,玉の木,,37.725950,140.373986,Z353-1,,0,,,
354-1,,室石,,37.726610,140.367879,Z354-1,,0,,,
355-1,,あづま陸上競技場,,37.725659,140.361203,Z355-1,,0,,,
356-1,,佐原,,37.724317,140.355355,Z356-1,,0,,,
357-1,,下林,,37.721806,140.356046,Z357-1,,0,,,
358-1,,桜沢,,37.715055,140.352341,Z358-1,,0,,,
359-1,,川石田,,37.710850,140.351024,Z359-1,,0,,,
360-1,,荒川発電所,,37.705163,140.347237,Z360-1,,0,,,
361-1,,永屋,,37.740123,140.452490,Z361-1,,0,,,
361-2,,永屋,,37.740607,140.453122,Z361-2,,0,,,
362-1,,石田,,37.735657,140.449199,Z362-1,,0,,,
362-2,,石田,,37.736311,140.449152,Z362-2,,0,,,
363-1,,舘の内,,37.732706,140.447000,Z363-1,,0,,,
364-1,,上の台,,37.731621,140.444062,Z364-1,,0,,,
364-2,,上の台,,37.731426,140.443506,Z364-2,,0,,,
365-1,,大森,,37.729490,140.439003,Z365-1,,0,,,
365-2,,大森,,37.729536,140.439785,Z365-2,,0,,,
366-1,,大森本町信夫支所入口,,37.727661,140.438331,Z366-1,,0,,,
367-1,,八幡神社前,,37.722083,140.439315,Z367-1,,0,,,
368-1,,並柳,,37.718554,140.439225,Z368-1,,0,,,
369-1,,JA平田,,37.711596,140.434769,Z369-1,,0,,,
370-1,,久保,,37.708836,140.431489,Z370-1,,0,,,
370-2,,久保,,37.708796,140.430750,Z370-2,,0,,,
371-1,,平田,,37.702736,140.424962,Z371-1,,0,,,
382-1,,滝の前,,37.729232,140.435088,Z382-1,,0,,,
383-1,,四斗蒔田,,37.729036,140.425177,Z383-1,,0,,,
384-1,,島,,37.728971,140.419214,Z384-1,,0,,,
385-1,,三王下,,37.728619,140.413814,Z385-1,,0,,,
386-1,,大畑,,37.727425,140.408993,Z386-1,,0,,,
387-1,,十三仏,,37.722175,140.401946,Z387-1,,0,,,
388-1,,小堀内,,37.720156,140.399804,Z388-1,,0,,,
389-1,,仲原,,37.718699,140.396292,Z389-1,,0,,,
390-1,,若石,,37.717253,140.390221,Z390-1,,0,,,
391-1,,目増,,37.715644,140.386876,Z391-1,,0,,,
392-1,,自衛隊前,,37.713547,140.381878,Z392-1,,0,,,
395-1,,台の坂,,37.716498,140.380523,Z395-1,,0,,,
396-1,,荒川橋,,37.739799,140.462159,Z396-1,,0,,,
396-2,,荒川橋,,37.740388,140.462211,Z396-2,,0,,,
397-1,,日東前,,37.736672,140.461178,Z397-1,,0,,,
397-2,,日東前,,37.737558,140.461347,Z397-2,,0,,,
398-1,,太平寺,,37.732942,140.460120,Z398-1,,0,,,
398-2,,太平寺,,37.733026,140.460043,Z398-2,,0,,,
399-1,,沖高,,37.730245,140.459689,Z399-1,,0,,,
399-2,,沖高,,37.730661,140.459663,Z399-2,,0,,,
400-1,,素利町,,37.727030,140.459381,Z400-1,,0,,,
400-2,,素利町,,37.727090,140.459267,Z400-2,,0,,,
401-1,,伏拝,,37.723518,140.460084,Z401-1,,0,,,
401-2,,伏拝,,37.724182,140.459458,Z401-2,,0,,,
402-1,,新田,,37.717288,140.462074,Z402-1,,0,,,
402-2,,新田,,37.717656,140.462019,Z402-2,,0,,,
403-1,,北谷地,,37.710060,140.467926,Z403-1,,0,,,
403-2,,北谷地,,37.710310,140.467368,Z403-2,,0,,,
404-1,,蓬莱団地入口,,37.702338,140.471914,Z404-1,,0,,,
404-2,,蓬莱団地入口,,37.702402,140.471747,Z404-2,,0,,,
405-1,,清水町,,37.701720,140.463365,Z405-1,,0,,,
405-2,,清水町,,37.702085,140.463863,Z405-2,,0,,,
406-1,,一本松,,37.697472,140.461845,Z406-1,,0,,,
406-2,,一本松,,37.697330,140.461430,Z406-2,,0,,,
407-1,,若宮,,37.689534,140.458180,Z407-1,,0,,,
407-2,,若宮,,37.689813,140.458048,Z407-2,,0,,,
408-1,,金谷川,,37.678873,140.464098,Z408-1,,0,,,
408-2,,金谷川,,37.678741,140.464084,Z408-2,,0,,,
409-1,,丸石,,37.670302,140.465207,Z409-1,,0,,,
409-2,,丸石,,37.670320,140.465104,Z409-2,,0,,,
410-1,,松川町,,37.659556,140.461486,Z410-1,,0,,,
410-2,,松川町,,37.660149,140.461658,Z410-2,,0,,,
410-3,,松川町,,37.659815,140.462252,Z410-3,,0,,,
412-1,,松川向町,,37.650753,140.460446,Z412-1,,0,,,
413-1,,吉倉,,37.645597,140.463843,Z413-1,,0,,,
413-2,,吉倉,,37.646146,140.463425,Z413-2,,0,,,
414-1,,渋川,,37.632523,140.463140,Z414-1,,0,,,
414-2,,渋川,,37.633095,140.463339,Z414-2,,0,,,
415-1,,二本柳,,37.623114,140.462214,Z415-1,,0,,,
415-2,,二本柳,,37.623177,140.462062,Z415-2,,0,,,
416-1,,安達中学校前,,37.617590,140.462563,Z416-1,,0,,,
416-2,,安達中学校前,,37.617721,140.462460,Z416-2,,0,,,
417-1,,安達駅入口,,37.611326,140.461342,Z417-1,,0,,,
417-2,,安達駅入口,,37.612031,140.461365,Z417-2,,0,,,
418-1,,八軒入口,,37.604948,140.459580,Z418-1,,0,,,
418-2,,八軒入口,,37.605044,140.459593,Z418-2,,0,,,
419-1,,油井小学校前,,37.603849,140.457863,Z419-1,,0,,,
419-2,,油井小学校前,,37.603489,140.457566,Z419-2,,0,,,
420-1,,八軒,,37.602523,140.456667,Z420-1,,0,,,
420-2,,八軒,,37.602470,140.456415,Z420-2,,0,,,
421-1,,馬出,,37.600019,140.451437,Z421-1,,0,,,
422-1,,根崎,,37.599204,140.447633,Z422-1,,0,,,
422-2,,根崎,,37.599255,140.448504,Z422-2,,0,,,
423-1,,竹田,,37.599414,140.444579,Z423-1,,0,,,
423-2,,竹田,,37.599499,140.444753,Z423-2,,0,,,
424-1,,安達高校前,,37.598375,140.441247,Z424-1,,0,,,
424-2,,安達高校前,,37.598476,140.441236,Z424-2,,0,,,
425-1,,郭内,,37.596851,140.440097,Z425-1,,0,,,
425-2,,郭内,,37.596447,140.439963,Z425-2,,0,,,
426-1,,亀谷一丁目,,37.594033,140.439893,Z426-1,,0,,,
426-2,,亀谷一丁目,,37.594111,140.439872,Z426-2,,0,,,
427-1,,本町,,37.591646,140.439027,Z427-1,,0,,,
427-2,,本町,,37.591775,140.439442,Z427-2,,0,,,
428-1,,二本松駅入口,,37.590750,140.435070,Z428-1,,0,,,
428-2,,二本松駅入口,,37.591198,140.435233,Z428-2,,0,,,
429-1,,二本松若宮,,37.589759,140.427859,Z429-1,,0,,,
429-2,,二本松若宮,,37.589837,140.427876,Z429-2,,0,,,
430-1,,安達ヶ原入口,,37.594009,140.457188,Z430-1,,0,,,
430-2,,安達ヶ原入口,,37.593649,140.456301,Z430-2,,0,,,
431-1,,榎戸,,37.592246,140.449237,Z431-1,,0,,,
432-1,,御免町,,37.591977,140.446076,Z432-1,,0,,,
432-2,,御免町,,37.592150,140.444373,Z432-2,,0,,,
433-1,,松本,,37.704063,140.479289,Z433-1,,0,,,
434-1,,愛育園前,,37.703181,140.484773,Z434-1,,0,,,
435-1,,杉の内,,37.699981,140.488718,Z435-1,,0,,,
438-1,,蓬莱小学校,,37.698782,140.472932,Z438-1,,0,,,
438-2,,蓬莱小学校,,37.698722,140.472933,Z438-2,,0,,,
439-1,,蓬莱児童センター,,37.698765,140.475076,Z439-1,,0,,,
439-2,,蓬莱児童センター,,37.698709,140.474569,Z439-2,,0,,,
440-1,,蓬莱柳通り,,37.698757,140.476654,Z440-1,,0,,,
440-2,,蓬莱柳通り,,37.698701,140.477174,Z440-2,,0,,,
441-1,,石内入口,,37.698325,140.481748,Z441-1,,0,,,
441-2,,石内入口,,37.697984,140.481595,Z441-2,,0,,,
442-1,,蓬莱東,,37.695102,140.477893,Z442-1,,0,,,
442-2,,蓬莱東,,37.695119,140.477808,Z442-2,,0,,,
443-1,,蓬莱かえで通り,,37.695535,140.474086,Z443-1,,0,,,
443-2,,蓬莱かえで通り,,37.695399,140.474700,Z443-2,,0,,,
444-1,,蓬莱学習センター,,37.697133,140.472944,Z444-1,,0,,,
444-2,,蓬莱学習センター,,37.697198,140.472914,Z444-2,,0,,,
445-1,,ショッピングセンター,,37.697133,140.470644,Z445-1,,0,,,
445-2,,ショッピングセンター,,37.697213,140.470657,Z445-2,,0,,,
446-1,,蓬莱黒松通り,,37.697711,140.468200,Z446-1,,0,,,
446-2,,蓬莱黒松通り,,37.697722,140.468303,Z446-2,,0,,,
447-1,,蓬莱西口,,37.698535,140.464925,Z447-1,,0,,,
447-2,,蓬莱西口,,37.698492,140.464669,Z447-2,,0,,,
463-1,,置賜町,,37.755656,140.463845,Z463-1,,0,,,
463-2,,置賜町,,37.754748,140.464027,Z463-2,,0,,,
464-1,,松川支所,,37.658621,140.468294,Z464-1,,0,,,
464-2,,松川支所,,37.658966,140.467908,Z464-2,,0,,,
465-1,,松川新町,,37.655460,140.474899,Z465-1,,0,,,
466-1,,北芝前,,37.654902,140.478070,Z466-1,,0,,,
466-2,,北芝前,,37.654975,140.478077,Z466-2,,0,,,
476-1,,飯野下町,,37.657196,140.534259,Z476-1,,0,,,
476-2,,飯野下町,,37.657152,140.534185,Z476-2,,0,,,
490-1,,川俣郵便局前,,37.663831,140.599203,Z490-1,,0,,,
491-1,,日和田,,37.663117,140.601411,Z491-1,,0,,,
491-2,,日和田,,37.663039,140.602021,Z491-2,,0,,,
492-1,,鉄炮町,,37.663625,140.603014,Z492-1,,0,,,
492-2,,鉄炮町,,37.663919,140.603108,Z492-2,,0,,,
493-1,,瓦町,,37.665798,140.602691,Z493-1,,0,,,
493-2,,瓦町,,37.666230,140.602767,Z493-2,,0,,,
494-1,,川俣町,,37.667489,140.602827,Z494-1,,0,,,
494-2,,川俣町,,37.667060,140.602840,Z494-2,,0,,,
495-1,,川俣中島,,37.667369,140.608010,Z495-1,,0,,,
495-2,,川俣中島,,37.667317,140.606174,Z495-2,,0,,,
496-1,,川俣営業所,,37.666220,140.613892,Z496-1,,0,,,
497-1,,川俣高校前,,37.667848,140.618837,Z497-1,,0,,,
497-2,,川俣高校前,,37.667925,140.619096,Z497-2,,0,,,
498-1,,北原,,37.654382,140.490268,Z498-1,,0,,,
498-2,,北原,,37.654282,140.488616,Z498-2,,0,,,
504-1,,畑中,,37.672855,140.517595,Z504-1,,0,,,
505-1,,房田,,37.670439,140.522364,Z505-1,,0,,,
506-1,,青木広表,,37.670025,140.526191,Z506-1,,0,,,
507-1,,竹ノ内,,37.667827,140.529741,Z507-1,,0,,,
508-1,,上竹ノ内,,37.665049,140.531365,Z508-1,,0,,,
508-2,,上竹ノ内,,37.664806,140.531326,Z508-2,,0,,,
511-1,,天神渡,,37.745083,140.471867,Z511-1,,0,,,
511-2,,天神渡,,37.747282,140.471770,Z511-2,,0,,,
512-1,,弁天山下,,37.743685,140.470015,Z512-1,,0,,,
519-1,,渡利中山,,37.720400,140.498720,Z519-1,,0,,,
519-2,,渡利中山,,37.720188,140.498795,Z519-2,,0,,,
520-1,,渡利唐沢,,37.710803,140.503441,Z520-1,,0,,,
520-2,,渡利唐沢,,37.710728,140.503354,Z520-2,,0,,,
521-1,,大沢,,37.707477,140.506630,Z521-1,,0,,,
521-2,,大沢,,37.707631,140.506445,Z521-2,,0,,,
522-1,,伊達葭田,,37.701464,140.507527,Z522-1,,0,,,
534-1,,飯坂学校前,,37.670191,140.626231,Z534-1,,0,,,
535-1,,萩平,,37.671292,140.631862,Z535-1,,0,,,
536-1,,水境,,37.684404,140.659591,Z536-1,,0,,,
536-2,,水境,,37.683474,140.658434,Z536-2,,0,,,
537-1,,信田,,37.690080,140.670557,Z537-1,,0,,,
538-1,,二枚橋局前,,37.691422,140.675410,Z538-1,,0,,,
539-1,,飯舘境木,,37.691865,140.689088,Z539-1,,0,,,
540-1,,臼石,,37.693402,140.697513,Z540-1,,0,,,
540-2,,臼石,,37.693346,140.697521,Z540-2,,0,,,
541-1,,樅の木,,37.693763,140.704751,Z541-1,,0,,,
542-1,,いこいの家,,37.696627,140.714753,Z542-1,,0,,,
542-2,,いこいの家,,37.696453,140.716167,Z542-2,,0,,,
543-1,,市の沢,,37.696312,140.721280,Z543-1,,0,,,
544-1,,深谷,,37.696842,140.732110,Z544-1,,0,,,
544-2,,深谷,,37.696829,140.732720,Z544-2,,0,,,
545-1,,飯舘ふれ愛館前,,37.695593,140.748759,Z545-1,,0,,,
545-2,,飯舘ふれ愛館前,,37.695555,140.748495,Z545-2,,0,,,
546-1,,目玉打,,37.695009,140.753206,Z546-1,,0,,,
547-1,,草野本町,,37.694307,140.756429,Z547-1,,0,,,
549-1,,赤坂,,37.692083,140.770531,Z549-1,,0,,,
549-2,,赤坂,,37.692148,140.769861,Z549-2,,0,,,
550-1,,芦原,,37.682751,140.783852,Z550-1,,0,,,
551-1,,糠塚,,37.688573,140.803224,Z551-1,,0,,,
553-1,,坂下,,37.688048,140.842568,Z553-1,,0,,,
554-1,,大芦,,37.684369,140.851477,Z554-1,,0,,,
555-1,,バラ坂,,37.678482,140.858153,Z555-1,,0,,,
556-1,,社地神,,37.668214,140.867128,Z556-1,,0,,,
557-1,,下社地神,,37.666109,140.868615,Z557-1,,0,,,
558-1,,杉内,,37.664375,140.887916,Z558-1,,0,,,
559-1,,大原,,37.663660,140.895114,Z559-1,,0,,,
559-2,,大原,,37.663592,140.895174,Z559-2,,0,,,
560-1,,大原公会堂,,37.662752,140.899609,Z560-1,,0,,,
561-1,,西下田,,37.661304,140.906800,Z561-1,,0,,,
562-1,,かやの木,,37.661458,140.913640,Z562-1,,0,,,
563-1,,信田沢,,37.661255,140.919072,Z563-1,,0,,,
563-2,,信田沢,,37.661128,140.919664,Z563-2,,0,,,
564-1,,新田原,,37.659957,140.925818,Z564-1,,0,,,
564-2,,新田原,,37.659862,140.925953,Z564-2,,0,,,
565-1,,北長野,,37.658282,140.932978,Z565-1,,0,,,
565-2,,北長野,,37.658158,140.933128,Z565-2,,0,,,
565-3,,北長野,,37.658909,140.932546,Z565-3,,0,,,
566-1,,長野,,37.656848,140.938849,Z566-1,,0,,,
567-1,,南原,,37.652645,140.944120,Z567-1,,0,,,
569-1,,小川町,,37.646239,140.959373,Z569-1,,0,,,
569-2,,小川町,,37.646144,140.959250,Z569-2,,0,,,
570-1,,本町三丁目,,37.643538,140.959056,Z570-1,,0,,,
570-2,,本町三丁目,,37.643755,140.959004,Z570-2,,0,,,
571-1,,本町,,37.642178,140.958850,Z571-1,,0,,,
571-2,,本町,,37.642136,140.958774,Z571-2,,0,,,
572-1,,本町一丁目,,37.639704,140.958823,Z572-1,,0,,,
573-1,,四ツ葉通り,,37.638490,140.958191,Z573-1,,0,,,
573-2,,四ツ葉通り,,37.638397,140.959342,Z573-2,,0,,,
573-3,,四ツ葉通り,,37.639345,140.958918,Z573-3,,0,,,
574-1,,栄町,,37.638351,140.960553,Z574-1,,0,,,
575-1,,栄町二丁目,,37.638383,140.963394,Z575-1,,0,,,
575-2,,栄町二丁目,,37.638291,140.962879,Z575-2,,0,,,
576-1,,旭公園前,,37.638393,140.965046,Z576-1,,0,,,
576-2,,旭公園前,,37.638332,140.964959,Z576-2,,0,,,
577-1,,旭町一丁目,,37.638023,140.967986,Z577-1,,0,,,
577-2,,旭町一丁目,,37.638024,140.967491,Z577-2,,0,,,
578-1,,原町駅前,,37.637438,140.971330,Z578-1,,0,,,
583-1,,黒岩,,37.726679,140.470772,Z583-1,,0,,,
583-2,,黒岩,,37.726586,140.470671,Z583-2,,0,,,
587-1,,弁天橋,,37.737398,140.466797,Z587-1,,0,,,
587-2,,弁天橋,,37.737251,140.466542,Z587-2,,0,,,
588-1,,鳥谷野入口,,37.734417,140.466703,Z588-1,,0,,,
588-2,,鳥谷野入口,,37.734433,140.466488,Z588-2,,0,,,
589-1,,中島,,37.725830,140.466926,Z589-1,,0,,,
589-2,,中島,,37.725244,140.466704,Z589-2,,0,,,
600-1,,競石,,37.603889,140.568981,Z600-1,,0,,,
601-1,,実太郎,,37.603835,140.573044,Z601-1,,0,,,
602-1,,針道,,37.601337,140.575420,Z602-1,,0,,,
602-2,,針道,,37.601039,140.575890,Z602-2,,0,,,
603-1,,渡利舟場,,37.748840,140.472975,Z603-1,,0,,,
603-2,,渡利舟場,,37.748092,140.472355,Z603-2,,0,,,
604-1,,福島南高校,,37.747080,140.473459,Z604-1,,0,,,
604-2,,福島南高校,,37.748366,140.474081,Z604-2,,0,,,
605-1,,馬場町,,37.746881,140.475295,Z605-1,,0,,,
606-1,,沖町,,37.747672,140.477402,Z606-1,,0,,,
607-1,,番匠町,,37.747478,140.480001,Z607-1,,0,,,
608-1,,わたり病院前,,37.747208,140.482478,Z608-1,,0,,,
614-1,,渡利小学校,,37.749225,140.479787,Z614-1,,0,,,
615-1,,中角,,37.748802,140.476896,Z615-1,,0,,,
624-1,,堀河町,,37.771974,140.489202,Z624-1,,0,,,
624-2,,堀河町,,37.771814,140.490962,Z624-2,,0,,,
625-1,,岡部,,37.771364,140.495410,Z625-1,,0,,,
625-2,,岡部,,37.771271,140.495064,Z625-2,,0,,,
626-1,,高畑,,37.771645,140.499066,Z626-1,,0,,,
626-2,,高畑,,37.771672,140.501093,Z626-2,,0,,,
627-1,,西原,,37.771335,140.504056,Z627-1,,0,,,
628-1,,文知摺,,37.771259,140.507698,Z628-1,,0,,,
629-1,,文知摺観音入口,,37.768305,140.513209,Z629-1,,0,,,
629-2,,文知摺観音入口,,37.768531,140.512590,Z629-2,,0,,,
630-1,,お春地蔵,,37.765588,140.518139,Z630-1,,0,,,
630-2,,お春地蔵,,37.765845,140.517707,Z630-2,,0,,,
631-1,,作の内,,37.760357,140.520002,Z631-1,,0,,,
631-2,,作の内,,37.760433,140.519842,Z631-2,,0,,,
632-1,,行部,,37.751537,140.522233,Z632-1,,0,,,
632-2,,行部,,37.752180,140.521497,Z632-2,,0,,,
633-1,,土屋場,,37.749544,140.529908,Z633-1,,0,,,
633-2,,土屋場,,37.749195,140.530347,Z633-2,,0,,,
634-1,,水戸内,,37.750841,140.535792,Z634-1,,0,,,
634-2,,水戸内,,37.750559,140.535625,Z634-2,,0,,,
635-1,,上屋敷,,37.754285,140.541360,Z635-1,,0,,,
635-2,,上屋敷,,37.754454,140.541958,Z635-2,,0,,,
636-1,,大波,,37.755573,140.544196,Z636-1,,0,,,
636-2,,大波,,37.755562,140.544363,Z636-2,,0,,,
637-1,,大波出張所,,37.756624,140.554924,Z637-1,,0,,,
637-2,,大波出張所,,37.756533,140.554750,Z637-2,,0,,,
638-1,,岩崎,,37.757470,140.559533,Z638-1,,0,,,
638-2,,岩崎,,37.757066,140.558639,Z638-2,,0,,,
639-1,,大渕,,37.762550,140.564830,Z639-1,,0,,,
640-1,,海呑,,37.767521,140.572084,Z640-1,,0,,,
641-1,,下小国,,37.768393,140.580166,Z641-1,,0,,,
641-2,,下小国,,37.768179,140.579318,Z641-2,,0,,,
641-3,,下小国,,37.767027,140.578945,Z641-3,,0,,,
642-1,,小国公民館前,,37.767591,140.585584,Z642-1,,0,,,
643-1,,工場前,,37.768954,140.589134,Z643-1,,0,,,
644-1,,月舘入口,,37.771260,140.592997,Z644-1,,0,,,
644-2,,月舘入口,,37.770712,140.591903,Z644-2,,0,,,
644-3,,月舘入口,,37.770304,140.592843,Z644-3,,0,,,
645-1,,霊山総合支所,,37.777011,140.596760,Z645-1,,0,,,
645-2,,霊山総合支所,,37.776871,140.596912,Z645-2,,0,,,
646-1,,掛田金子町,,37.779716,140.596046,Z646-1,,0,,,
647-1,,掛田新町,,37.781044,140.594961,Z647-1,,0,,,
648-1,,掛田中町,,37.782799,140.594617,Z648-1,,0,,,
649-1,,石橋,,37.774135,140.608843,Z649-1,,0,,,
650-1,,山戸田,,37.767910,140.610572,Z650-1,,0,,,
666-1,,玉野学校前,,37.768952,140.715497,Z666-1,,0,,,
667-1,,玉野橋,,37.769888,140.723449,Z667-1,,0,,,
668-1,,東玉野,,37.764788,140.736189,Z668-1,,0,,,
669-1,,堤入口,,37.771237,140.745807,Z669-1,,0,,,
670-1,,落合橋,,37.776254,140.751710,Z670-1,,0,,,
671-1,,菖蒲沢,,37.772176,140.770866,Z671-1,,0,,,
672-1,,上中井塚,,37.768331,140.786199,Z672-1,,0,,,
673-1,,下中井塚,,37.766942,140.793796,Z673-1,,0,,,
674-1,,落合,,37.778875,140.803576,Z674-1,,0,,,
675-1,,滝平,,37.782925,140.816731,Z675-1,,0,,,
676-1,,小田原,,37.776301,140.832809,Z676-1,,0,,,
677-1,,間ノ次郎,,37.769080,140.845754,Z677-1,,0,,,
677-2,,間ノ次郎,,37.768794,140.846043,Z677-2,,0,,,
678-1,,円渕,,37.766193,140.859616,Z678-1,,0,,,
678-2,,円渕,,37.766146,140.859731,Z678-2,,0,,,
679-1,,横川,,37.774551,140.866934,Z679-1,,0,,,
679-2,,横川,,37.774599,140.867210,Z679-2,,0,,,
680-1,,山上学校前,,37.778070,140.880119,Z680-1,,0,,,
680-2,,山上学校前,,37.777953,140.880047,Z680-2,,0,,,
681-1,,今田入口,,37.776776,140.888378,Z681-1,,0,,,
682-1,,山岸,,37.777668,140.894637,Z682-1,,0,,,
682-2,,山岸,,37.777844,140.895259,Z682-2,,0,,,
683-1,,相馬市バスターミナル,,37.784292,140.899769,Z683-1,,0,,,
684-1,,粟津入口,,37.787370,140.904407,Z684-1,,0,,,
684-2,,粟津入口,,37.786990,140.904344,Z684-2,,0,,,
685-1,,表西山,,37.791296,140.909778,Z685-1,,0,,,
686-1,,大手先局前,,37.792948,140.912297,Z686-1,,0,,,
686-2,,大手先局前,,37.793163,140.912794,Z686-2,,0,,,
687-1,,大手先,,37.795690,140.916683,Z687-1,,0,,,
687-2,,大手先,,37.795873,140.916951,Z687-2,,0,,,
688-1,,相馬市役所前,,37.796900,140.918699,Z688-1,,0,,,
688-2,,相馬市役所前,,37.796808,140.919140,Z688-2,,0,,,
691-1,,相馬営業所,,37.803513,140.924420,Z691-1,,0,,,
692-1,,栄町,,37.799873,140.924364,Z692-1,,0,,,
692-2,,栄町,,37.799967,140.924442,Z692-2,,0,,,
693-1,,大町,,37.798588,140.924270,Z693-1,,0,,,
693-2,,大町,,37.798620,140.924359,Z693-2,,0,,,
694-1,,宇多川町通り,,37.797089,140.922071,Z694-1,,0,,,
696-1,,福田入口,,37.767114,140.594726,Z696-1,,0,,,
697-1,,大平,,37.756376,140.600404,Z697-1,,0,,,
698-1,,久保の内,,37.754756,140.605715,Z698-1,,0,,,
698-2,,久保の内,,37.754919,140.605187,Z698-2,,0,,,
699-1,,御代田,,37.750062,140.607051,Z699-1,,0,,,
699-2,,御代田,,37.750002,140.606971,Z699-2,,0,,,
700-1,,飯森,,37.745722,140.604798,Z700-1,,0,,,
701-1,,堰の下,,37.740973,140.608701,Z701-1,,0,,,
702-1,,月舘,,37.738444,140.611090,Z702-1,,0,,,
703-1,,町,,37.735989,140.610019,Z703-1,,0,,,
703-2,,町,,37.735727,140.609726,Z703-2,,0,,,
704-1,,月舘総合支所,,37.734802,140.608132,Z704-1,,0,,,
705-1,,舘の腰,,37.731205,140.604600,Z705-1,,0,,,
706-1,,清水ヶ丘,,37.728558,140.604745,Z706-1,,0,,,
707-1,,北作,,37.719216,140.605157,Z707-1,,0,,,
708-1,,城下町,,37.716596,140.603253,Z708-1,,0,,,
709-1,,下手渡,,37.715140,140.602867,Z709-1,,0,,,
710-1,,下の町,,37.708718,140.608818,Z710-1,,0,,,
711-1,,小島中島,,37.703438,140.607132,Z711-1,,0,,,
712-1,,小島支所前,,37.698345,140.607657,Z712-1,,0,,,
713-1,,岩阿久,,37.694691,140.608609,Z713-1,,0,,,
714-1,,新関,,37.690080,140.613015,Z714-1,,0,,,
715-1,,岩廻り,,37.684762,140.618441,Z715-1,,0,,,
715-2,,岩廻り,,37.684112,140.618143,Z715-2,,0,,,
716-1,,頭陀寺前,,37.677891,140.616096,Z716-1,,0,,,
717-1,,落合,,37.676052,140.614943,Z717-1,,0,,,
718-1,,七窪,,37.673305,140.613138,Z718-1,,0,,,
718-2,,七窪,,37.673313,140.613066,Z718-2,,0,,,
719-1,,後川,,37.656750,140.535765,Z719-1,,0,,,
719-2,,後川,,37.656698,140.535688,Z719-2,,0,,,
720-1,,飯野町,,37.656979,140.538361,Z720-1,,0,,,
743-1,,上町,,37.754454,140.468038,Z743-1,,0,,,
743-2,,上町,,37.755383,140.468122,Z743-2,,0,,,
744-1,,新浜公園,,37.757819,140.467864,Z744-1,,0,,,
744-2,,新浜公園,,37.757917,140.468000,Z744-2,,0,,,
745-1,,宮下町,,37.759146,140.467949,Z745-1,,0,,,
745-2,,宮下町,,37.759000,140.468047,Z745-2,,0,,,
746-1,,附属小前,市民会館側,37.761417,140.468996,Z746-1,,0,,,
746-2,,附属小前,附属小学校側,37.761364,140.469229,Z746-2,,0,,,
747-1,,ふくしまアリーナ,,37.763894,140.468400,Z747-1,,0,,,
747-2,,ふくしまアリーナ,,37.763795,140.469600,Z747-2,,0,,,
747-3,,ふくしまアリーナ,,37.763631,140.468733,Z747-3,,0,,,
748-1,,霞町,,37.763842,140.470378,Z748-1,,0,,,
748-2,,霞町,,37.763738,140.471441,Z748-2,,0,,,
749-1,,桜の聖母短期大学,,37.763522,140.473608,Z749-1,,0,,,
749-2,,桜の聖母短期大学,,37.763581,140.473768,Z749-2,,0,,,
750-1,,花園町,,37.763024,140.474414,Z750-1,,0,,,
750-2,,花園町,,37.763042,140.475256,Z750-2,,0,,,
751-1,,福島市役所前,裁判所側,37.761265,140.473608,Z751-1,,0,,,
751-2,,福島市役所前,市役所側,37.761183,140.473689,Z751-2,,0,,,
752-1,,太田町,,37.755081,140.453884,Z752-1,,0,,,
753-1,,三河台,,37.756415,140.454286,Z753-1,,0,,,
754-1,,福高前,,37.764147,140.462015,Z754-1,,0,,,
754-2,,福高前,,37.764073,140.462376,Z754-2,,0,,,
755-1,,福島テレビ,,37.763967,140.465758,Z755-1,,0,,,
755-2,,福島テレビ,,37.763906,140.465798,Z755-2,,0,,,
756-1,,桜の聖母学院,,37.759296,140.443378,Z756-1,,0,,,
757-1,,野田局前,,37.760778,140.441191,Z757-1,,0,,,
757-2,,野田局前,,37.760859,140.441129,Z757-2,,0,,,
761-1,,小国若宮,,37.765214,140.577147,Z761-1,,0,,,
762-1,,玄番,,37.759719,140.571383,Z762-1,,0,,,
763-1,,末坂,,37.756369,140.569197,Z763-1,,0,,,
764-1,,小国中島,,37.748843,140.565910,Z764-1,,0,,,
765-1,,小国茶畑,,37.743599,140.562959,Z765-1,,0,,,
766-1,,大木,,37.737473,140.558180,Z766-1,,0,,,
767-1,,山上,,37.728263,140.552640,Z767-1,,0,,,
768-1,,追分,,37.721033,140.549774,Z768-1,,0,,,
845-1,,上舘,,37.811030,140.618513,Z845-1,,0,,,
846-1,,鳥居広道,,37.805785,140.620187,Z846-1,,0,,,
846-2,,鳥居広道,,37.805910,140.619780,Z846-2,,0,,,
849-1,,中川集落センター,,37.792933,140.619082,Z849-1,,0,,,
850-1,,霊山大平,,37.792500,140.609716,Z850-1,,0,,,
851-1,,田沢,,37.792853,140.600907,Z851-1,,0,,,
852-1,,中学校前,,37.787604,140.594333,Z852-1,,0,,,
852-2,,中学校前,,37.787445,140.594230,Z852-2,,0,,,
853-1,,寺下,,37.805126,140.628741,Z853-1,,0,,,
854-1,,支所前,,37.803487,140.631123,Z854-1,,0,,,
855-1,,宮脇,,37.802417,140.632939,Z855-1,,0,,,
856-1,,大石小学校,,37.801071,140.637641,Z856-1,,0,,,
857-1,,霊山神社,,37.798612,140.643223,Z857-1,,0,,,
872-1,,さいかち町,,37.827794,140.447552,Z872-1,,0,,,
872-2,,さいかち町,,37.827759,140.448209,Z872-2,,0,,,
873-1,,湯町田中,,37.828220,140.444530,Z873-1,,0,,,
873-2,,湯町田中,,37.828428,140.443547,Z873-2,,0,,,
874-1,,中野小学校前,,37.827322,140.432050,Z874-1,,0,,,
875-1,,平林,,37.826566,140.429662,Z875-1,,0,,,
876-1,,高取,,37.825507,140.425310,Z876-1,,0,,,
876-2,,高取,,37.825585,140.424928,Z876-2,,0,,,
877-1,,滝の沢,,37.826079,140.417240,Z877-1,,0,,,
878-1,,瀬沼,,37.829379,140.403426,Z878-1,,0,,,
879-1,,中野橋,,37.830893,140.393461,Z879-1,,0,,,
879-2,,中野橋,,37.831028,140.393437,Z879-2,,0,,,
880-1,,銅屋,,37.832551,140.389989,Z880-1,,0,,,
881-1,,円部,,37.835074,140.385624,Z881-1,,0,,,
882-1,,杉の平,,37.838928,140.373602,Z882-1,,0,,,
886-1,,町内,,37.775080,140.497297,Z886-1,,0,,,
886-2,,町内,,37.775113,140.497379,Z886-2,,0,,,
887-1,,当木,,37.777591,140.497798,Z887-1,,0,,,
887-2,,当木,,37.777740,140.497970,Z887-2,,0,,,
888-1,,大旦,,37.781582,140.499875,Z888-1,,0,,,
888-2,,大旦,,37.781773,140.500195,Z888-2,,0,,,
889-1,,砂入,,37.784321,140.503156,Z889-1,,0,,,
889-2,,砂入,,37.784261,140.503257,Z889-2,,0,,,
890-1,,岡島,,37.787681,140.507145,Z890-1,,0,,,
890-2,,岡島,,37.786793,140.506275,Z890-2,,0,,,
891-1,,向鎌田,,37.790647,140.511811,Z891-1,,0,,,
891-2,,向鎌田,,37.789948,140.510380,Z891-2,,0,,,
892-1,,月の輪,,37.794192,140.515921,Z892-1,,0,,,
893-1,,病院前,,37.797308,140.517634,Z893-1,,0,,,
894-1,,沼頭,,37.802957,140.519701,Z894-1,,0,,,
894-2,,沼頭,,37.802546,140.519413,Z894-2,,0,,,
895-1,,高子沼,,37.804604,140.523878,Z895-1,,0,,,
895-2,,高子沼,,37.804538,140.523874,Z895-2,,0,,,
896-1,,高子,,37.804768,140.526051,Z896-1,,0,,,
896-2,,高子,,37.804690,140.525994,Z896-2,,0,,,
897-1,,高子団地,,37.805699,140.530717,Z897-1,,0,,,
897-2,,高子団地,,37.805492,140.529907,Z897-2,,0,,,
898-1,,岩谷山,,37.807568,140.533343,Z898-1,,0,,,
899-1,,上保原,,37.812157,140.541181,Z899-1,,0,,,
899-2,,上保原,,37.812089,140.541147,Z899-2,,0,,,
900-1,,寺前,,37.814032,140.546526,Z900-1,,0,,,
900-2,,寺前,,37.813963,140.546537,Z900-2,,0,,,
947-1,,針道中央,,37.600075,140.577772,Z947-1,,0,,,
948-1,,堤崎,,37.598626,140.578004,Z948-1,,0,,,
949-1,,宮の平,,37.593325,140.577546,Z949-1,,0,,,
974-1,,かわまた認定こども園,,37.658757,140.607337,Z974-1,,0,,,
976-1,,若宮二丁目,,37.588981,140.424194,Z976-1,,0,,,
976-2,,若宮二丁目,,37.589026,140.424050,Z976-2,,0,,,
977-1,,岳下住民センター,,37.587020,140.417700,Z977-1,,0,,,
978-1,,四斗内,,37.593006,140.408432,Z978-1,,0,,,
979-1,,永田,,37.596129,140.402642,Z979-1,,0,,,
980-1,,山の入,,37.601303,140.393906,Z980-1,,0,,,
981-1,,毘沙門堂,,37.598463,140.382490,Z981-1,,0,,,
982-1,,萩坂,,37.601371,140.375476,Z982-1,,0,,,
983-1,,立石,,37.600254,140.369389,Z983-1,,0,,,
984-1,,グランド前,,37.600716,140.361632,Z984-1,,0,,,
985-1,,岳二丁目,,37.602154,140.359118,Z985-1,,0,,,
985-2,,岳二丁目,,37.601906,140.360045,Z985-2,,0,,,
986-1,,岳温泉,,37.605949,140.357184,Z986-1,,0,,,
990-1,,奥岳,,37.623289,140.324778,Z990-1,,0,,,
994-1,,大坦,,37.585905,140.425004,Z994-1,,0,,,
995-1,,寺の町,,37.581522,140.419808,Z995-1,,0,,,
996-1,,正法寺,,37.580575,140.418457,Z996-1,,0,,,
997-1,,高越,,37.578457,140.416397,Z997-1,,0,,,
998-1,,中山田,,37.576325,140.409940,Z998-1,,0,,,
999-1,,堀米,,37.575320,140.404290,Z999-1,,0,,,
1000-1,,諏訪林,,37.577489,140.397656,Z1000-1,,0,,,
1001-1,,大畑,,37.580975,140.391822,Z1001-1,,0,,,
1002-1,,原瀬住民会館前,,37.583265,140.390856,Z1002-1,,0,,,
1003-1,,堰下,,37.590012,140.388710,Z1003-1,,0,,,
1004-1,,川原,,37.592607,140.385578,Z1004-1,,0,,,
1005-1,,仲神,,37.596073,140.383920,Z1005-1,,0,,,
1014-1,,二本松営業所,,37.589072,140.447461,Z1014-1,,0,,,
1014-2,,二本松営業所,,37.588878,140.447454,Z1014-2,,0,,,
1014-3,,二本松営業所,,37.588795,140.447298,Z1014-3,,0,,,
1015-1,,上竹,,37.585010,140.448833,Z1015-1,,0,,,
1015-2,,上竹,,37.584992,140.448442,Z1015-2,,0,,,
1016-1,,高田橋,,37.582685,140.455320,Z1016-1,,0,,,
1016-2,,高田橋,,37.583047,140.454354,Z1016-2,,0,,,
1016-3,,高田橋,,37.581888,140.453726,Z1016-3,,0,,,
1017-1,,赤坂,,37.578025,140.455272,Z1017-1,,0,,,
1018-1,,一本木,,37.574084,140.456095,Z1018-1,,0,,,
1019-1,,赤井沢,,37.567715,140.454443,Z1019-1,,0,,,
1020-1,,五老内,,37.562689,140.455490,Z1020-1,,0,,,
1021-1,,中町,,37.560444,140.457241,Z1021-1,,0,,,
1021-2,,中町,,37.559674,140.457325,Z1021-2,,0,,,
1022-1,,石井住民センター,,37.558347,140.459087,Z1022-1,,0,,,
1050-1,,三春大町,,37.442336,140.490025,Z1050-1,,0,,,
1050-2,,三春大町,,37.442259,140.490026,Z1050-2,,0,,,
1051-1,,三春町役場,,37.441272,140.492828,Z1051-1,,0,,,
1051-2,,三春町役場,,37.441167,140.492797,Z1051-2,,0,,,
1052-1,,南町,,37.440234,140.494734,Z1052-1,,0,,,
1052-2,,南町,,37.440226,140.494562,Z1052-2,,0,,,
1053-1,,山中,,37.439332,140.496065,Z1053-1,,0,,,
1053-2,,山中,,37.439235,140.496078,Z1053-2,,0,,,
1054-1,,三春清水,,37.439378,140.499270,Z1054-1,,0,,,
1071-1,,小浜,,37.560711,140.508217,Z1071-1,,0,,,
1087-1,,庚申山,,37.558852,140.461164,Z1087-1,,0,,,
1088-1,,鈴石神社前,,37.553002,140.468344,Z1088-1,,0,,,
1089-1,,伝承舘前,,37.549051,140.468820,Z1089-1,,0,,,
1090-1,,寺の前,,37.542454,140.470556,Z1090-1,,0,,,
1091-1,,養堂屋敷,,37.537588,140.473669,Z1091-1,,0,,,
1101-1,,木の崎,,37.575699,140.462102,Z1101-1,,0,,,
1102-1,,大稲場,,37.572959,140.468791,Z1102-1,,0,,,
1102-2,,大稲場,,37.572773,140.468760,Z1102-2,,0,,,
1103-1,,大林,,37.571059,140.474970,Z1103-1,,0,,,
1104-1,,遠山入口,,37.571385,140.479596,Z1104-1,,0,,,
1105-1,,神明石,,37.572233,140.482584,Z1105-1,,0,,,
1106-1,,愛宕山下,,37.569870,140.490073,Z1106-1,,0,,,
1107-1,,作,,37.567833,140.494207,Z1107-1,,0,,,
1108-1,,大池田入口,,37.566514,140.502961,Z1108-1,,0,,,
1109-1,,樋の口,,37.567974,140.509115,Z1109-1,,0,,,
1109-2,,樋の口,,37.568054,140.509012,Z1109-2,,0,,,
1110-1,,小浜新町,,37.563341,140.508228,Z1110-1,,0,,,
1111-1,,中央新町,,37.561607,140.508009,Z1111-1,,0,,,
1131-1,,百目木入口,,37.530798,140.610111,Z1131-1,,0,,,
1132-1,,堂内,,37.531527,140.611576,Z1132-1,,0,,,
1133-1,,茂原入口,,37.532357,140.612700,Z1133-1,,0,,,
1134-1,,百目木,,37.533195,140.614252,Z1134-1,,0,,,
1135-1,,百目木上町,,37.533721,140.616089,Z1135-1,,0,,,
1136-1,,搦手,,37.535987,140.618648,Z1136-1,,0,,,
1155-1,,松原南,,36.936373,140.406550,Z1155-1,,0,,,
1195-1,,島の内,,37.576830,140.470516,Z1195-1,,0,,,
1196-1,,大平農協前,,37.579611,140.474760,Z1196-1,,0,,,
1197-1,,宮の下,,37.578955,140.481870,Z1197-1,,0,,,
1198-1,,宮本,,37.578678,140.485993,Z1198-1,,0,,,
1199-1,,中井橋,,37.579435,140.487915,Z1199-1,,0,,,
1204-1,,変電所前,,37.597069,140.451156,Z1204-1,,0,,,
1205-1,,安達ヶ原,,37.593137,140.463686,Z1205-1,,0,,,
1205-2,,安達ヶ原,,37.593440,140.462912,Z1205-2,,0,,,
1206-1,,安達ヶ原公園前,,37.593267,140.467077,Z1206-1,,0,,,
1206-2,,安達ヶ原公園前,,37.593224,140.467174,Z1206-2,,0,,,
1207-1,,工業団地入口,,37.594201,140.469565,Z1207-1,,0,,,
1208-1,,矢の戸,,37.595035,140.473060,Z1208-1,,0,,,
1209-1,,石畑,,37.594311,140.477622,Z1209-1,,0,,,
1209-2,,石畑,,37.594449,140.477258,Z1209-2,,0,,,
1210-1,,蓬田,,37.591283,140.482871,Z1210-1,,0,,,
1210-2,,蓬田,,37.591237,140.483105,Z1210-2,,0,,,
1211-1,,巻渕,,37.591824,140.489354,Z1211-1,,0,,,
1211-2,,巻渕,,37.591726,140.489442,Z1211-2,,0,,,
1212-1,,浅川,,37.589687,140.492795,Z1212-1,,0,,,
1212-2,,浅川,,37.589560,140.492808,Z1212-2,,0,,,
1212-3,,浅川,,37.589562,140.492490,Z1212-3,,0,,,
1213-1,,十文字,,37.585189,140.500344,Z1213-1,,0,,,
1214-1,,下長折,,37.582532,140.504969,Z1214-1,,0,,,
1215-1,,藤,,37.582711,140.507922,Z1215-1,,0,,,
1216-1,,小瀬川,,37.592398,140.515625,Z1216-1,,0,,,
1216-2,,小瀬川,,37.592344,140.515690,Z1216-2,,0,,,
1217-1,,川口,,37.594417,140.519403,Z1217-1,,0,,,
1217-2,,川口,,37.594224,140.518915,Z1217-2,,0,,,
1218-1,,荻の田,,37.591003,140.526011,Z1218-1,,0,,,
1219-1,,楽内,,37.590551,140.531995,Z1219-1,,0,,,
1220-1,,前石田,,37.591394,140.536127,Z1220-1,,0,,,
1239-1,,太田若宮,,37.592842,140.539196,Z1239-1,,0,,,
1240-1,,海方作,,37.596723,140.542338,Z1240-1,,0,,,
1241-1,,深田,,37.598811,140.548639,Z1241-1,,0,,,
1242-1,,長沢,,37.599078,140.553364,Z1242-1,,0,,,
1243-1,,古峰神社前,,37.599766,140.558760,Z1243-1,,0,,,
1244-1,,小久田,,37.600241,140.563041,Z1244-1,,0,,,
1280-1,,御徒町,,37.600955,140.443528,Z1280-1,,0,,,
1281-1,,表塩沢,,37.602503,140.444189,Z1281-1,,0,,,
1282-1,,塩沢宮の下,,37.606193,140.444920,Z1282-1,,0,,,
1283-1,,表団地,,37.608711,140.444273,Z1283-1,,0,,,
1283-2,,表団地,,37.608915,140.444355,Z1283-2,,0,,,
1284-1,,日卸石,,37.611243,140.443751,Z1284-1,,0,,,
1285-1,,持東林,,37.614989,140.439938,Z1285-1,,0,,,
1286-1,,銀杏木,,37.617096,140.434975,Z1286-1,,0,,,
1286-2,,銀杏木,,37.617465,140.435086,Z1286-2,,0,,,
1287-1,,上原,,37.619469,140.430263,Z1287-1,,0,,,
1288-1,,中の目,,37.621199,140.422621,Z1288-1,,0,,,
1289-1,,鉄扇橋,,37.623888,140.416376,Z1289-1,,0,,,
1289-2,,鉄扇橋,,37.623847,140.416730,Z1289-2,,0,,,
1289-3,,鉄扇橋,,37.623663,140.417222,Z1289-3,,0,,,
1290-1,,下小屋入口,,37.624817,140.412973,Z1290-1,,0,,,
1291-1,,笹小屋,,37.627570,140.403604,Z1291-1,,0,,,
1292-1,,休石原,,37.627979,140.396505,Z1292-1,,0,,,
1293-1,,休石,,37.630308,140.386877,Z1293-1,,0,,,
1294-1,,サファリパーク前,,37.638318,140.366191,Z1294-1,,0,,,
1295-1,,木の根坂,,37.639684,140.356499,Z1295-1,,0,,,
1296-1,,道谷坂,,37.640423,140.350083,Z1296-1,,0,,,
1297-1,,湯川渓谷入口,,37.641571,140.341338,Z1297-1,,0,,,
1297-2,,湯川渓谷入口,,37.642058,140.341666,Z1297-2,,0,,,
1298-1,,塩沢温泉,,37.642205,140.333625,Z1298-1,,0,,,
1299-1,,塩沢一丁目,,37.614229,140.429907,Z1299-1,,0,,,
1300-1,,塩沢学校前,,37.614014,140.425329,Z1300-1,,0,,,
1301-1,,畑中,,37.617464,140.421328,Z1301-1,,0,,,
1302-1,,道場原,,37.619716,140.419476,Z1302-1,,0,,,
1303-1,,江垂研修センター前,,37.695104,140.969938,Z1303-1,,0,,,
1304-1,,小島田,,37.690797,140.980280,Z1304-1,,0,,,
1305-1,,川子,,37.681997,140.976079,Z1305-1,,0,,,
1306-1,,松迫,,37.670327,140.998125,Z1306-1,,0,,,
1312-1,,二本松駅前,,37.589889,140.435244,Z1312-1,,0,,,
1317-1,,東根崎,,37.595853,140.451376,Z1317-1,,0,,,
1318-1,,文化センター,,37.594082,140.450501,Z1318-1,,0,,,
1318-2,,文化センター,,37.594099,140.450386,Z1318-2,,0,,,
1321-1,,北小泉,,37.808540,140.920610,Z1321-1,,0,,,
1322-1,,公立相馬病院,,37.811439,140.921664,Z1322-1,,0,,,
1323-1,,新沼,,37.814622,140.921326,Z1323-1,,0,,,
1324-1,,石上,,37.823259,140.919655,Z1324-1,,0,,,
1324-2,,石上,,37.823424,140.919781,Z1324-2,,0,,,
1325-1,,地蔵川原,,37.833857,140.918368,Z1325-1,,0,,,
1325-2,,地蔵川原,,37.832841,140.918534,Z1325-2,,0,,,
1326-1,,塚部,,37.836047,140.918231,Z1326-1,,0,,,
1326-2,,塚部,,37.835998,140.918376,Z1326-2,,0,,,
1377-1,,宇多川町,,37.796822,140.924117,Z1377-1,,0,,,
1378-1,,向町,,37.794139,140.924421,Z1378-1,,0,,,
1379-1,,ショッピングタウン・ベガ,,37.787337,140.929348,Z1379-1,,0,,,
1380-1,,向山,,37.783524,140.931836,Z1380-1,,0,,,
1381-1,,百尺観音入口,,37.773958,140.935936,Z1381-1,,0,,,
1382-1,,立谷,,37.764519,140.942237,Z1382-1,,0,,,
1383-1,,柚木入口,,37.755097,140.952982,Z1383-1,,0,,,
1383-2,,柚木入口,,37.755485,140.952550,Z1383-2,,0,,,
1384-1,,赤木,,37.748073,140.954626,Z1384-1,,0,,,
1384-2,,赤木,,37.748445,140.954431,Z1384-2,,0,,,
1385-1,,相馬清水,,37.741533,140.954124,Z1385-1,,0,,,
1385-2,,相馬清水,,37.742482,140.954012,Z1385-2,,0,,,
1386-1,,永渡,,37.732767,140.953466,Z1386-1,,0,,,
1387-1,,土樋,,37.723405,140.954593,Z1387-1,,0,,,
1387-2,,土樋,,37.722965,140.954728,Z1387-2,,0,,,
1388-1,,茂手,,37.711805,140.961103,Z1388-1,,0,,,
1389-1,,鹿島農協前,,37.709861,140.962708,Z1389-1,,0,,,
1390-1,,厚生病院前,,37.708746,140.963849,Z1390-1,,0,,,
1391-1,,鹿島上町,,37.705097,140.966038,Z1391-1,,0,,,
1391-2,,鹿島上町,,37.706493,140.965869,Z1391-2,,0,,,
1392-1,,鹿島中町,,37.703736,140.966684,Z1392-1,,0,,,
1393-1,,鹿島駅前,,37.702136,140.967422,Z1393-1,,0,,,
1393-2,,鹿島駅前,,37.702113,140.967534,Z1393-2,,0,,,
1394-1,,鹿島下町,,37.699602,140.968879,Z1394-1,,0,,,
1394-2,,鹿島下町,,37.699342,140.968834,Z1394-2,,0,,,
1395-1,,真野入口,,37.696351,140.969087,Z1395-1,,0,,,
1395-2,,真野入口,,37.697059,140.968969,Z1395-2,,0,,,
1396-1,,江垂,,37.688612,140.969394,Z1396-1,,0,,,
1397-1,,塩の崎,,37.681138,140.968600,Z1397-1,,0,,,
1398-1,,五本松,,37.669550,140.964881,Z1398-1,,0,,,
1399-1,,高松入口,,37.664396,140.962212,Z1399-1,,0,,,
1400-1,,植松,,37.660223,140.961412,Z1400-1,,0,,,
1400-2,,植松,,37.661255,140.961581,Z1400-2,,0,,,
1401-1,,上高平,,37.654669,140.962755,Z1401-1,,0,,,
1402-1,,新田橋,,37.651588,140.960671,Z1402-1,,0,,,
1408-1,,百槻,,37.792762,140.930169,Z1408-1,,0,,,
1409-1,,神明前,,37.792577,140.935418,Z1409-1,,0,,,
1409-2,,神明前,,37.792479,140.935094,Z1409-2,,0,,,
1410-1,,大曲,,37.789643,140.948002,Z1410-1,,0,,,
1411-1,,橋本前,,37.788478,140.951921,Z1411-1,,0,,,
1412-1,,飯豊,,37.787267,140.955206,Z1412-1,,0,,,
1413-1,,大師前,,37.785591,140.959381,Z1413-1,,0,,,
1414-1,,柏崎,,37.783055,140.963211,Z1414-1,,0,,,
1414-2,,柏崎,,37.782931,140.963115,Z1414-2,,0,,,
1415-1,,梅川,,37.781484,140.967463,Z1415-1,,0,,,
1419-1,,磯部選果場前,,37.764614,140.989636,Z1419-1,,0,,,
1420-1,,磯部学校,,37.760464,140.991314,Z1420-1,,0,,,
1421-1,,金草入口,,37.754033,140.996069,Z1421-1,,0,,,
1422-1,,蒲庭浜,,37.748425,141.001208,Z1422-1,,0,,,
1423-1,,蒲庭,,37.743820,141.003650,Z1423-1,,0,,,
1424-1,,立切,,37.729269,141.004961,Z1424-1,,0,,,
1425-1,,舘前,,37.727659,141.004143,Z1425-1,,0,,,
1425-2,,舘前,,37.727279,141.003853,Z1425-2,,0,,,
1435-1,,堂ヶ迫,,37.732876,140.998383,Z1435-1,,0,,,
1436-1,,獺庭,,37.739233,140.992186,Z1436-1,,0,,,
1437-1,,葉山前,,37.741188,140.980948,Z1437-1,,0,,,
1438-1,,柚木,,37.740674,140.973019,Z1438-1,,0,,,
1439-1,,上柚木,,37.743966,140.967223,Z1439-1,,0,,,
1440-1,,北柚木,,37.746464,140.964565,Z1440-1,,0,,,
1441-1,,松ヶ沢,,37.752910,140.957724,Z1441-1,,0,,,
1442-1,,清水橋,,37.788803,140.913273,Z1442-1,,0,,,
1442-2,,清水橋,,37.788584,140.913219,Z1442-2,,0,,,
1443-1,,熊野神社入口,,37.787077,140.913716,Z1443-1,,0,,,
1443-2,,熊野神社入口,,37.786410,140.913686,Z1443-2,,0,,,
1444-1,,岡本,,37.782211,140.914959,Z1444-1,,0,,,
1445-1,,八幡,,37.776144,140.911902,Z1445-1,,0,,,
1446-1,,八幡前,,37.773932,140.912695,Z1446-1,,0,,,
1447-1,,坪田,,37.770259,140.913874,Z1447-1,,0,,,
1448-1,,台町,,37.766771,140.915042,Z1448-1,,0,,,
1449-1,,松道,,37.760741,140.916028,Z1449-1,,0,,,
1449-2,,松道,,37.760785,140.915943,Z1449-2,,0,,,
1450-1,,富沢,,37.752959,140.915548,Z1450-1,,0,,,
1451-1,,長老,,37.743248,140.915218,Z1451-1,,0,,,
1452-1,,御山辻,,37.737466,140.918996,Z1452-1,,0,,,
1453-1,,角川原,,37.732535,140.928311,Z1453-1,,0,,,
1454-1,,前川原,,37.724533,140.930726,Z1454-1,,0,,,
1455-1,,車川,,37.721718,140.929824,Z1455-1,,0,,,
1456-1,,浮田,,37.720377,140.929412,Z1456-1,,0,,,
1457-1,,もみの木沢,,37.715520,140.928559,Z1457-1,,0,,,
1458-1,,小山田,,37.708217,140.928562,Z1458-1,,0,,,
1459-1,,小草,,37.696867,140.929754,Z1459-1,,0,,,
1460-1,,小池原,,37.689963,140.932042,Z1460-1,,0,,,
1460-2,,小池原,,37.689625,140.931747,Z1460-2,,0,,,
1461-1,,深野,,37.671060,140.932312,Z1461-1,,0,,,
1462-1,,豪倉前,,37.666602,140.932067,Z1462-1,,0,,,
1463-1,,上田,,37.651788,140.932010,Z1463-1,,0,,,
1464-1,,石神,,37.643137,140.935189,Z1464-1,,0,,,
1467-1,,西町,,37.636761,140.948787,Z1467-1,,0,,,
1468-1,,相馬農業高校前,,37.638259,140.954908,Z1468-1,,0,,,
1473-1,,羽山下,,37.731844,140.909436,Z1473-1,,0,,,
1474-1,,下栃窪,,37.729395,140.902863,Z1474-1,,0,,,
1475-1,,簡易局前,,37.728728,140.898534,Z1475-1,,0,,,
1476-1,,公会堂前,,37.727723,140.894710,Z1476-1,,0,,,
1477-1,,今宮,,37.724001,140.887039,Z1477-1,,0,,,
1478-1,,浜井場,,37.723988,140.882027,Z1478-1,,0,,,
1479-1,,作業所前,,37.725101,140.877652,Z1479-1,,0,,,
1480-1,,橋端,,37.724187,140.870786,Z1480-1,,0,,,
1481-1,,上栃窪,,37.722542,140.866628,Z1481-1,,0,,,
1486-1,,本風呂,,37.728622,140.917159,Z1486-1,,0,,,
1487-1,,馬見塚,,37.725692,140.919746,Z1487-1,,0,,,
1488-1,,中の内,,37.722889,140.926006,Z1488-1,,0,,,
1489-1,,診療所前,,37.722959,140.928642,Z1489-1,,0,,,
1490-1,,満中内,,37.717558,140.936188,Z1490-1,,0,,,
1491-1,,宮前,,37.715723,140.940696,Z1491-1,,0,,,
1492-1,,岡和田,,37.712650,140.948561,Z1492-1,,0,,,
1503-1,,烏崎,,37.676299,141.009961,Z1503-1,,0,,,
1505-1,,堤入口,,37.677296,140.999009,Z1505-1,,0,,,
1506-1,,大内,,37.680040,140.993013,Z1506-1,,0,,,
1507-1,,安の子,,37.681811,140.989375,Z1507-1,,0,,,
1509-1,,柚原,,37.693705,140.975391,Z1509-1,,0,,,
1535-1,,桜田山下,,37.699269,140.960899,Z1535-1,,0,,,
1536-1,,寺内,,37.696524,140.954758,Z1536-1,,0,,,
1537-1,,横峰入口,,37.693360,140.943883,Z1537-1,,0,,,
1538-1,,遊園地前,,37.690956,140.935890,Z1538-1,,0,,,
1539-1,,原畑,,37.688627,140.929261,Z1539-1,,0,,,
1540-1,,宮前橋,,37.688091,140.921940,Z1540-1,,0,,,
1541-1,,風穴湯,,37.690208,140.915178,Z1541-1,,0,,,
1542-1,,立目石,,37.689483,140.908197,Z1542-1,,0,,,
1543-1,,中塚,,37.689176,140.901474,Z1543-1,,0,,,
1544-1,,橲原,,37.689162,140.896474,Z1544-1,,0,,,
1557-1,,郡山駅前,,37.399365,140.387880,Z1557-1,,0,,,
1557-2,,郡山駅前,,37.399223,140.388108,Z1557-2,,0,,,
1557-3,,郡山駅前,,37.399084,140.388137,Z1557-3,,0,,,
1557-5,,郡山駅前,,37.398826,140.387943,Z1557-5,,0,,,
1557-6,,郡山駅前,,37.398706,140.387819,Z1557-6,,0,,,
1557-7,,郡山駅前,,37.398642,140.388193,Z1557-7,,0,,,
1557-8,,郡山駅前,,37.398786,140.388230,Z1557-8,,0,,,
1557-9,,郡山駅前,,37.398931,140.388268,Z1557-9,,0,,,
1557-10,,郡山駅前,,37.399083,140.388305,Z1557-10,,0,,,
1557-11,,郡山駅前,,37.399247,140.388295,Z1557-11,,0,,,
1557-12,,郡山駅前,,37.399383,140.388189,Z1557-12,,0,,,
1558-1,,中央大町,,37.398017,140.385376,Z1558-1,,0,,,
1558-2,,中央大町,,37.398035,140.385177,Z1558-2,,0,,,
1558-3,,中央大町,,37.398404,140.384277,Z1558-3,,0,,,
1559-1,,清水台二丁目,,37.399615,140.383784,Z1559-1,,0,,,
1559-2,,清水台二丁目,,37.399456,140.383936,Z1559-2,,0,,,
1560-1,,赤木町,,37.401384,140.384797,Z1560-1,,0,,,
1560-2,,赤木町,,37.401242,140.384972,Z1560-2,,0,,,
1561-1,,大町二丁目,,37.406091,140.384033,Z1561-1,,0,,,
1561-2,,大町二丁目,,37.404693,140.384433,Z1561-2,,0,,,
1561-3,,大町二丁目,,37.404887,140.385678,Z1561-3,,0,,,
1561-4,,大町二丁目,,37.405381,140.382784,Z1561-4,,0,,,
1562-1,,金堀田,,37.410632,140.385656,Z1562-1,,0,,,
1562-2,,金堀田,,37.410419,140.385730,Z1562-2,,0,,,
1563-1,,三春街道入口,,37.413354,140.388442,Z1563-1,,0,,,
1563-2,,三春街道入口,,37.413240,140.388594,Z1563-2,,0,,,
1564-1,,日東紡テクノ,,37.413556,140.397425,Z1564-1,,0,,,
1564-2,,日東紡テクノ,,37.413076,140.396892,Z1564-2,,0,,,
1565-1,,日東前,,37.415341,140.399780,Z1565-1,,0,,,
1565-2,,日東前,,37.415283,140.399858,Z1565-2,,0,,,
1566-1,,陣場,,37.419396,140.405234,Z1566-1,,0,,,
1566-2,,陣場,,37.419171,140.405032,Z1566-2,,0,,,
1567-1,,郡山大町,,37.400308,140.385791,Z1567-1,,0,,,
1568-1,,大重,,37.402365,140.387051,Z1568-1,,0,,,
1569-1,,梅田,,37.405630,140.388623,Z1569-1,,0,,,
1569-2,,梅田,,37.405553,140.388687,Z1569-2,,0,,,
1570-1,,久保田,,37.409116,140.390235,Z1570-1,,0,,,
1570-2,,久保田,,37.409322,140.390421,Z1570-2,,0,,,
1571-1,,富久山,,37.413425,140.391167,Z1571-1,,0,,,
1571-2,,富久山,,37.412386,140.391219,Z1571-2,,0,,,
1572-1,,行健小学校,,37.417006,140.391154,Z1572-1,,0,,,
1572-2,,行健小学校,,37.417156,140.391239,Z1572-2,,0,,,
1573-1,,富久山寺ノ下,,37.421466,140.391457,Z1573-1,,0,,,
1573-2,,富久山寺ノ下,,37.421389,140.391524,Z1573-2,,0,,,
1574-1,,福原,,37.425112,140.391821,Z1574-1,,0,,,
1574-2,,福原,,37.425131,140.391905,Z1574-2,,0,,,
1575-1,,沼の下,,37.429477,140.392682,Z1575-1,,0,,,
1575-2,,沼の下,,37.429547,140.392780,Z1575-2,,0,,,
1576-1,,牛ヶ池団地入口,,37.432968,140.390946,Z1576-1,,0,,,
1576-2,,牛ヶ池団地入口,,37.432743,140.391253,Z1576-2,,0,,,
1578-1,,上野,,37.414741,140.386477,Z1578-1,,0,,,
1578-2,,上野,,37.415273,140.386642,Z1578-2,,0,,,
1579-1,,大原,,37.419002,140.386057,Z1579-1,,0,,,
1579-2,,大原,,37.419252,140.386128,Z1579-2,,0,,,
1580-1,,総合南東北病院,,37.422249,140.384526,Z1580-1,,0,,,
1580-2,,総合南東北病院,,37.422949,140.384494,Z1580-2,,0,,,
1582-1,,乙高,,37.408079,140.381485,Z1582-1,,0,,,
1582-2,,乙高,,37.408209,140.381470,Z1582-2,,0,,,
1583-1,,久保田変電所,,37.412532,140.377806,Z1583-1,,0,,,
1583-2,,久保田変電所,,37.412811,140.377686,Z1583-2,,0,,,
1587-1,,赤木小学校,,37.405802,140.380455,Z1587-1,,0,,,
1587-2,,赤木小学校,,37.406000,140.380228,Z1587-2,,0,,,
1588-1,,咲田二丁目,,37.406185,140.378302,Z1588-1,,0,,,
1588-2,,咲田二丁目,,37.406310,140.378485,Z1588-2,,0,,,
1589-1,,西ノ内一丁目,,37.407771,140.371459,Z1589-1,,0,,,
1589-2,,西ノ内一丁目,,37.407932,140.371362,Z1589-2,,0,,,
1590-1,,第五中学校,,37.408059,140.368337,Z1590-1,,0,,,
1590-2,,第五中学校,,37.408198,140.368464,Z1590-2,,0,,,
1591-1,,太田西ノ内病院前,,37.408303,140.365499,Z1591-1,,0,,,
1591-2,,太田西ノ内病院前,,37.408467,140.364853,Z1591-2,,0,,,
1592-1,,朝日三丁目,,37.407621,140.358660,Z1592-1,,0,,,
1592-2,,朝日三丁目,,37.407800,140.358761,Z1592-2,,0,,,
1593-1,,稲川原,,37.415254,140.371582,Z1593-1,,0,,,
1593-2,,稲川原,,37.415411,140.370935,Z1593-2,,0,,,
1594-1,,山王林,,37.417229,140.364233,Z1594-1,,0,,,
1594-2,,山王林,,37.417467,140.363975,Z1594-2,,0,,,
1595-1,,富田中学校,,37.419676,140.360599,Z1595-1,,0,,,
1596-1,,行人田,,37.421025,140.357425,Z1596-1,,0,,,
1597-1,,市営テニスコート,,37.421920,140.352253,Z1597-1,,0,,,
1597-2,,市営テニスコート,,37.421887,140.353989,Z1597-2,,0,,,
1599-1,,並木,,37.411312,140.361285,Z1599-1,,0,,,
1599-2,,並木,,37.411220,140.361458,Z1599-2,,0,,,
1600-1,,並木五丁目,,37.412383,140.358881,Z1600-1,,0,,,
1601-1,,大島,,37.414447,140.356335,Z1601-1,,0,,,
1602-1,,阿久戸,,37.415806,140.351467,Z1602-1,,0,,,
1603-1,,下富田,,37.419512,140.347702,Z1603-1,,0,,,
1604-1,,富田小学校,,37.421819,140.346444,Z1604-1,,0,,,
1604-2,,富田小学校,,37.421873,140.346542,Z1604-2,,0,,,
1606-1,,清水台,,37.399329,140.380493,Z1606-1,,0,,,
1606-2,,清水台,,37.399438,140.380717,Z1606-2,,0,,,
1607-1,,虎丸,,37.399338,140.376769,Z1607-1,,0,,,
1607-2,,虎丸,,37.399442,140.378332,Z1607-2,,0,,,
1608-1,,第二中学校,,37.399350,140.373648,Z1608-1,,0,,,
1608-2,,第二中学校,,37.399431,140.372989,Z1608-2,,0,,,
1609-1,,安積黎明高校,,37.399356,140.370039,Z1609-1,,0,,,
1609-2,,安積黎明高校,,37.399450,140.370460,Z1609-2,,0,,,
1610-1,,一本松,,37.399352,140.365748,Z1610-1,,0,,,
1610-2,,一本松,,37.399549,140.364285,Z1610-2,,0,,,
1611-1,,郡山市役所,,37.399615,140.360774,Z1611-1,,0,,,
1611-2,,郡山市役所,,37.399800,140.359512,Z1611-2,,0,,,
1612-1,,郡山女子大学,,37.400022,140.352996,Z1612-1,,0,,,
1612-2,,郡山女子大学,,37.399488,140.354483,Z1612-2,,0,,,
1612-3,,郡山女子大学,,37.399383,140.354413,Z1612-3,,0,,,
1613-1,,桑野二丁目,,37.402048,140.352452,Z1613-1,,0,,,
1613-2,,桑野二丁目,,37.402194,140.352507,Z1613-2,,0,,,
1614-1,,桑野三丁目,,37.405837,140.351393,Z1614-1,,0,,,
1614-2,,桑野三丁目,,37.405492,140.351609,Z1614-2,,0,,,
1615-1,,下亀田,,37.410494,140.349065,Z1615-1,,0,,,
1615-2,,下亀田,,37.410924,140.348767,Z1615-2,,0,,,
1616-1,,第六中学校,,37.413759,140.344664,Z1616-1,,0,,,
1616-2,,第六中学校,,37.413760,140.344974,Z1616-2,,0,,,
1617-1,,富田,,37.419972,140.343852,Z1617-1,,0,,,
1617-2,,富田,,37.419872,140.344110,Z1617-2,,0,,,
1618-1,,コパル前,,37.425142,140.343746,Z1618-1,,0,,,
1618-2,,コパル前,,37.426358,140.343860,Z1618-2,,0,,,
1619-1,,郡山ビッグハート,,37.407546,140.345775,Z1619-1,,0,,,
1619-2,,郡山ビッグハート,,37.407787,140.345505,Z1619-2,,0,,,
1620-1,,希望ヶ丘入口,,37.407735,140.340519,Z1620-1,,0,,,
1620-2,,希望ヶ丘入口,,37.407812,140.340341,Z1620-2,,0,,,
1623-1,,うすい入口,,37.397598,140.382830,Z1623-1,,0,,,
1623-2,,うすい入口,,37.396972,140.382308,Z1623-2,,0,,,
1624-1,,金透小学校,,37.395608,140.381237,Z1624-1,,0,,,
1625-1,,如宝寺,,37.395114,140.379575,Z1625-1,,0,,,
1626-1,,裁判所前,,37.395160,140.376378,Z1626-1,,0,,,
1626-2,,裁判所前,,37.395404,140.375640,Z1626-2,,0,,,
1627-1,,麓山一丁目,,37.395509,140.373916,Z1627-1,,0,,,
1627-2,,麓山一丁目,,37.395567,140.374125,Z1627-2,,0,,,
1628-1,,麓山二丁目,,37.395529,140.371604,Z1628-1,,0,,,
1628-2,,麓山二丁目,,37.395585,140.371416,Z1628-2,,0,,,
1629-1,,郡山市上下水道局,,37.395577,140.368534,Z1629-1,,0,,,
1629-2,,郡山市上下水道局,,37.395632,140.368361,Z1629-2,,0,,,
1630-1,,夕陽ヶ丘,,37.395588,140.366223,Z1630-1,,0,,,
1630-2,,夕陽ヶ丘,,37.395720,140.364587,Z1630-2,,0,,,
1631-1,,開成山プール,,37.395671,140.361576,Z1631-1,,0,,,
1631-2,,開成山プール,,37.395751,140.360815,Z1631-2,,0,,,
1632-1,,疏水事務所,,37.395723,140.358447,Z1632-1,,0,,,
1632-2,,疏水事務所,,37.395783,140.357586,Z1632-2,,0,,,
1633-1,,開成山,,37.396628,140.354629,Z1633-1,,0,,,
1633-2,,開成山,,37.396819,140.354434,Z1633-2,,0,,,
1634-1,,開成館,,37.395083,140.354873,Z1634-1,,0,,,
1634-2,,開成館,,37.395302,140.354683,Z1634-2,,0,,,
1635-1,,安積高校,,37.392254,140.351418,Z1635-1,,0,,,
1635-2,,安積高校,,37.392300,140.350965,Z1635-2,,0,,,
1636-1,,台新,,37.391299,140.343278,Z1636-1,,0,,,
1636-2,,台新,,37.391411,140.343468,Z1636-2,,0,,,
1637-1,,大成小学校入口,,37.391446,140.339276,Z1637-1,,0,,,
1637-2,,大成小学校入口,,37.391593,140.338867,Z1637-2,,0,,,
1638-1,,静団地入口,,37.391827,140.334748,Z1638-1,,0,,,
1638-2,,静団地入口,,37.391915,140.334822,Z1638-2,,0,,,
1638-3,,静団地入口,,37.391169,140.335520,Z1638-3,,0,,,
1638-4,,静団地入口,,37.391303,140.335406,Z1638-4,,0,,,
1641-1,,県合同庁舎,,37.396357,140.377322,Z1641-1,,0,,,
1642-1,,開成五丁目,,37.392456,140.353666,Z1642-1,,0,,,
1642-2,,開成五丁目,,37.392557,140.353920,Z1642-2,,0,,,
1643-1,,郡山中央図書館,,37.393290,140.374408,Z1643-1,,0,,,
1643-2,,郡山中央図書館,,37.393527,140.373929,Z1643-2,,0,,,
1644-1,,池ノ台,,37.393514,140.369828,Z1644-1,,0,,,
1644-2,,池ノ台,,37.393645,140.370372,Z1644-2,,0,,,
1645-1,,酒蓋,,37.393438,140.367349,Z1645-1,,0,,,
1645-2,,酒蓋,,37.393541,140.367335,Z1645-2,,0,,,
1646-1,,鶴見坦,,37.393271,140.365144,Z1646-1,,0,,,
1646-2,,鶴見坦,,37.393351,140.364932,Z1646-2,,0,,,
1647-1,,鶴見坦交差点,,37.392554,140.362415,Z1647-1,,0,,,
1647-2,,鶴見坦交差点,,37.391891,140.362142,Z1647-2,,0,,,
1648-1,,第一中学校,,37.390840,140.362180,Z1648-1,,0,,,
1648-2,,第一中学校,,37.390702,140.361970,Z1648-2,,0,,,
1649-1,,第一中学校南,,37.388243,140.361820,Z1649-1,,0,,,
1649-2,,第一中学校南,,37.388755,140.361696,Z1649-2,,0,,,
1650-1,,郡山商業高校,,37.386651,140.362401,Z1650-1,,0,,,
1650-2,,郡山商業高校,,37.386752,140.362283,Z1650-2,,0,,,
1651-1,,菜根一丁目,,37.386755,140.365535,Z1651-1,,0,,,
1651-2,,菜根一丁目,,37.386874,140.365630,Z1651-2,,0,,,
1652-1,,光ヶ丘,,37.386637,140.367941,Z1652-1,,0,,,
1652-2,,光ヶ丘,,37.386751,140.367950,Z1652-2,,0,,,
1653-1,,第三中学校,,37.386519,140.371114,Z1653-1,,0,,,
1653-2,,第三中学校,,37.386633,140.371106,Z1653-2,,0,,,
1653-3,,第三中学校,,37.387104,140.370864,Z1653-3,,0,,,
1653-4,,第三中学校,,37.387101,140.370774,Z1653-4,,0,,,
1654-1,,郡山東高校,,37.386740,140.374166,Z1654-1,,0,,,
1654-2,,郡山東高校,,37.386864,140.374141,Z1654-2,,0,,,
1655-1,,山根町,,37.386305,140.379304,Z1655-1,,0,,,
1655-2,,山根町,,37.386524,140.378114,Z1655-2,,0,,,
1656-1,,荒池,,37.391811,140.372051,Z1656-1,,0,,,
1656-2,,荒池,,37.391372,140.371919,Z1656-2,,0,,,
1657-1,,深沢,,37.389583,140.371599,Z1657-1,,0,,,
1657-2,,深沢,,37.389548,140.371505,Z1657-2,,0,,,
1658-1,,七ツ池,,37.383181,140.369282,Z1658-1,,0,,,
1658-2,,七ツ池,,37.383378,140.369255,Z1658-2,,0,,,
1659-1,,菜根三丁目,,37.380523,140.368157,Z1659-1,,0,,,
1659-2,,菜根三丁目,,37.380670,140.368111,Z1659-2,,0,,,
1660-1,,桜小学校,,37.377425,140.364300,Z1660-1,,0,,,
1661-1,,北井入口,,37.380767,140.359111,Z1661-1,,0,,,
1661-2,,北井入口,,37.380735,140.358907,Z1661-2,,0,,,
1662-1,,久留米水天宮,,37.379506,140.355989,Z1662-1,,0,,,
1663-1,,久留米三丁目,,37.379311,140.353822,Z1663-1,,0,,,
1663-2,,久留米三丁目,,37.379340,140.353568,Z1663-2,,0,,,
1664-1,,久留米寺西,,37.378934,140.349510,Z1664-1,,0,,,
1664-2,,久留米寺西,,37.378924,140.348844,Z1664-2,,0,,,
1665-1,,久留米六丁目,,37.378144,140.344540,Z1665-1,,0,,,
1666-1,,万海池,,37.375588,140.341145,Z1666-1,,0,,,
1667-1,,柴宮山,,37.375315,140.339103,Z1667-1,,0,,,
1667-2,,柴宮山,,37.375332,140.339585,Z1667-2,,0,,,
1668-1,,柴宮団地,,37.375829,140.335201,Z1668-1,,0,,,
1669-1,,仁池向団地,,37.381944,140.347167,Z1669-1,,0,,,
1670-1,,針生,,37.383341,140.347570,Z1670-1,,0,,,
1671-1,,針生ヶ丘病院前,,37.385953,140.350941,Z1671-1,,0,,,
1671-2,,針生ヶ丘病院前,,37.386019,140.350385,Z1671-2,,0,,,
1672-1,,開成六丁目,,37.386163,140.355013,Z1672-1,,0,,,
1672-2,,開成六丁目,,37.386243,140.354602,Z1672-2,,0,,,
1674-1,,開成四丁目,,37.387627,140.355422,Z1674-1,,0,,,
1674-2,,開成四丁目,,37.387528,140.355351,Z1674-2,,0,,,
1681-1,,城清水,,37.376974,140.372209,Z1681-1,,0,,,
1681-2,,城清水,,37.377753,140.373433,Z1681-2,,0,,,
1682-1,,名倉,,37.377042,140.367969,Z1682-1,,0,,,
1682-2,,名倉,,37.378034,140.366978,Z1682-2,,0,,,
1682-3,,名倉,,37.377607,140.366928,Z1682-3,,0,,,
1683-1,,百合ヶ丘団地,,37.425887,140.347136,Z1683-1,,0,,,
1684-1,,堂前町,,37.393880,140.382210,Z1684-1,,0,,,
1684-2,,堂前町,,37.393616,140.381945,Z1684-2,,0,,,
1684-3,,堂前町,,37.393132,140.380465,Z1684-3,,0,,,
1685-1,,堤下町,,37.390318,140.381920,Z1685-1,,0,,,
1685-2,,堤下町,,37.390390,140.381698,Z1685-2,,0,,,
1686-1,,栄町,,37.388632,140.381774,Z1686-1,,0,,,
1686-2,,栄町,,37.388132,140.381456,Z1686-2,,0,,,
1687-1,,図景一丁目,,37.384988,140.379153,Z1687-1,,0,,,
1687-2,,図景一丁目,,37.384852,140.378786,Z1687-2,,0,,,
1688-1,,図景二丁目,,37.382055,140.376797,Z1688-1,,0,,,
1688-2,,図景二丁目,,37.382024,140.376601,Z1688-2,,0,,,
1689-1,,香久池一丁目,,37.379818,140.375810,Z1689-1,,0,,,
1689-2,,香久池一丁目,,37.379649,140.375562,Z1689-2,,0,,,
1690-1,,郡山警察署,,37.375490,140.373975,Z1690-1,,0,,,
1690-2,,郡山警察署,,37.374240,140.373253,Z1690-2,,0,,,
1691-1,,川向,,37.372023,140.372479,Z1691-1,,0,,,
1691-2,,川向,,37.371880,140.372207,Z1691-2,,0,,,
1692-1,,ビッグパレット入口,,37.368291,140.371568,Z1692-1,,0,,,
1692-2,,ビッグパレット入口,,37.368403,140.371750,Z1692-2,,0,,,
1693-1,,南名倉,,37.373032,140.368045,Z1693-1,,0,,,
1693-2,,南名倉,,37.372741,140.366941,Z1693-2,,0,,,
1694-1,,菜飯,,37.371101,140.364114,Z1694-1,,0,,,
1694-2,,菜飯,,37.371073,140.364014,Z1694-2,,0,,,
1695-1,,本町一丁目,,37.392089,140.383088,Z1695-1,,0,,,
1696-1,,本町二丁目,,37.389172,140.382713,Z1696-1,,0,,,
1697-1,,小原田一丁目,,37.384001,140.382078,Z1697-1,,0,,,
1697-2,,小原田一丁目,,37.384730,140.382089,Z1697-2,,0,,,
1698-1,,小原田四丁目,,37.380780,140.381789,Z1698-1,,0,,,
1698-2,,小原田四丁目,,37.380870,140.381616,Z1698-2,,0,,,
1699-1,,小原田五丁目,,37.377312,140.381560,Z1699-1,,0,,,
1699-2,,小原田五丁目,,37.376961,140.381411,Z1699-2,,0,,,
1700-1,,金屋入口,,37.372656,140.381582,Z1700-1,,0,,,
1700-2,,金屋入口,,37.372704,140.381289,Z1700-2,,0,,,
1701-1,,日出山三丁目,,37.368888,140.378488,Z1701-1,,0,,,
1701-2,,日出山三丁目,,37.368626,140.378214,Z1701-2,,0,,,
1702-1,,笹原,,37.366865,140.377811,Z1702-1,,0,,,
1703-1,,金山橋東詰,,37.370564,140.386880,Z1703-1,,0,,,
1703-2,,金山橋東詰,,37.370454,140.386728,Z1703-2,,0,,,
1704-1,,上川原,,37.368774,140.389305,Z1704-1,,0,,,
1704-2,,上川原,,37.368765,140.389167,Z1704-2,,0,,,
1705-1,,中央工業団地南口,,37.365414,140.393561,Z1705-1,,0,,,
1705-2,,中央工業団地南口,,37.366484,140.392035,Z1705-2,,0,,,
1706-1,,帝京安積高校,,37.366642,140.384986,Z1706-1,,0,,,
1706-2,,帝京安積高校,,37.366342,140.384831,Z1706-2,,0,,,
1707-1,,日本大学,,37.362112,140.382363,Z1707-1,,0,,,
1708-1,,向河原町,,37.403714,140.393140,Z1708-1,,0,,,
1708-2,,向河原町,,37.403778,140.392708,Z1708-2,,0,,,
1709-1,,太郎殿,,37.406429,140.396439,Z1709-1,,0,,,
1709-2,,太郎殿,,37.406077,140.396493,Z1709-2,,0,,,
1710-1,,郷花,,37.408572,140.402119,Z1710-1,,0,,,
1710-2,,郷花,,37.408525,140.401982,Z1710-2,,0,,,
1712-1,,阿久津,,37.406172,140.411207,Z1712-1,,0,,,
1713-1,,東芳小学校,,37.402765,140.412593,Z1713-1,,0,,,
1714-1,,宮の後,,37.399716,140.414640,Z1714-1,,0,,,
1715-1,,あぶくま台団地,,37.397361,140.418408,Z1715-1,,0,,,
1716-1,,三渡神社前,,37.400664,140.411825,Z1716-1,,0,,,
1720-1,,変電所前,,37.382652,140.410963,Z1720-1,,0,,,
1721-1,,神社前,,37.383355,140.414599,Z1721-1,,0,,,
1723-1,,保土谷,,37.395196,140.392182,Z1723-1,,0,,,
1724-1,,鴻の巣,,37.395084,140.394139,Z1724-1,,0,,,
1724-2,,鴻の巣,,37.394952,140.394277,Z1724-2,,0,,,
1725-1,,横塚,,37.393320,140.400371,Z1725-1,,0,,,
1727-1,,方八町一丁目,,37.392756,140.391323,Z1727-1,,0,,,
1727-2,,方八町一丁目,,37.393144,140.390585,Z1727-2,,0,,,
1728-1,,方八町二丁目,,37.391105,140.393803,Z1728-1,,0,,,
1728-2,,方八町二丁目,,37.391577,140.392916,Z1728-2,,0,,,
1728-3,,方八町二丁目,,37.389488,140.394077,Z1728-3,,0,,,
1729-1,,芳賀二丁目,,37.389482,140.396188,Z1729-1,,0,,,
1729-2,,芳賀二丁目,,37.389951,140.395344,Z1729-2,,0,,,
1730-1,,芳賀小学校,,37.388055,140.398944,Z1730-1,,0,,,
1730-2,,芳賀小学校,,37.388006,140.398813,Z1730-2,,0,,,
1731-1,,中央工業団地北口,,37.384733,140.403336,Z1731-1,,0,,,
1731-2,,中央工業団地北口,,37.384666,140.403299,Z1731-2,,0,,,
1732-1,,大平入口,,37.381669,140.406655,Z1732-1,,0,,,
1732-2,,大平入口,,37.381477,140.406622,Z1732-2,,0,,,
1733-1,,下行合,,37.376515,140.411607,Z1733-1,,0,,,
1734-1,,道の窪,,37.420514,140.408341,Z1734-1,,0,,,
1734-2,,道の窪,,37.420585,140.408700,Z1734-2,,0,,,
1735-1,,水穴,,37.421632,140.411571,Z1735-1,,0,,,
1735-2,,水穴,,37.421536,140.411453,Z1735-2,,0,,,
1736-1,,小泉,,37.422912,140.416180,Z1736-1,,0,,,
1736-2,,小泉,,37.422788,140.418393,Z1736-2,,0,,,
1737-1,,土橋,,37.420792,140.425873,Z1737-1,,0,,,
1737-2,,土橋,,37.420887,140.425492,Z1737-2,,0,,,
1738-1,,舞木,,37.418294,140.429966,Z1738-1,,0,,,
1738-2,,舞木,,37.418616,140.428787,Z1738-2,,0,,,
1739-1,,岩江橋,,37.417308,140.432910,Z1739-1,,0,,,
1739-2,,岩江橋,,37.417186,140.432425,Z1739-2,,0,,,
1740-1,,舞木駅前,,37.418635,140.437309,Z1740-1,,0,,,
1740-2,,舞木駅前,,37.418534,140.437267,Z1740-2,,0,,,
1741-1,,上舞木,,37.420207,140.440445,Z1741-1,,0,,,
1741-2,,上舞木,,37.420325,140.440783,Z1741-2,,0,,,
1742-1,,向田,,37.422307,140.448402,Z1742-1,,0,,,
1742-2,,向田,,37.422480,140.448976,Z1742-2,,0,,,
1743-1,,下山田,,37.423686,140.452122,Z1743-1,,0,,,
1743-2,,下山田,,37.423547,140.452084,Z1743-2,,0,,,
1744-1,,上山田,,37.427087,140.456953,Z1744-1,,0,,,
1744-2,,上山田,,37.426707,140.456846,Z1744-2,,0,,,
1745-1,,日陰橋,,37.429946,140.460821,Z1745-1,,0,,,
1745-2,,日陰橋,,37.430899,140.461882,Z1745-2,,0,,,
1746-1,,下宮田,,37.435090,140.466484,Z1746-1,,0,,,
1746-2,,下宮田,,37.434439,140.466154,Z1746-2,,0,,,
1747-1,,宮田,,37.438054,140.468024,Z1747-1,,0,,,
1747-2,,宮田,,37.437982,140.467692,Z1747-2,,0,,,
1748-1,,一本松,,37.441032,140.473886,Z1748-1,,0,,,
1748-2,,一本松,,37.440549,140.473913,Z1748-2,,0,,,
1749-1,,日本化学工場前,,37.440989,140.478148,Z1749-1,,0,,,
1749-2,,日本化学工場前,,37.440903,140.478280,Z1749-2,,0,,,
1750-1,,広場,,37.440469,140.482001,Z1750-1,,0,,,
1750-2,,広場,,37.440312,140.482310,Z1750-2,,0,,,
1751-1,,八幡町,,37.440630,140.486295,Z1751-1,,0,,,
1751-2,,八幡町,,37.440482,140.486124,Z1751-2,,0,,,
1752-1,,三春中町,,37.441664,140.488282,Z1752-1,,0,,,
1752-2,,三春中町,,37.441615,140.488345,Z1752-2,,0,,,
1753-1,,北町,,37.444184,140.492919,Z1753-1,,0,,,
1753-2,,北町,,37.444360,140.493524,Z1753-2,,0,,,
1754-1,,町立三春病院前,,37.446716,140.496907,Z1754-1,,0,,,
1754-2,,町立三春病院前,,37.446870,140.498141,Z1754-2,,0,,,
1755-1,,田村警察署,,37.446448,140.502194,Z1755-1,,0,,,
1755-2,,田村警察署,,37.446073,140.502796,Z1755-2,,0,,,
1756-1,,熊耳,,37.448477,140.515228,Z1756-1,,0,,,
1756-2,,熊耳,,37.448400,140.515022,Z1756-2,,0,,,
1757-1,,西部工業団地入口,,37.445889,140.521790,Z1757-1,,0,,,
1757-2,,西部工業団地入口,,37.445799,140.521903,Z1757-2,,0,,,
1758-1,,駒場,,37.444257,140.528075,Z1758-1,,0,,,
1758-2,,駒場,,37.444249,140.528279,Z1758-2,,0,,,
1759-1,,追分,,37.443084,140.534800,Z1759-1,,0,,,
1759-2,,追分,,37.443105,140.534509,Z1759-2,,0,,,
1760-1,,永畑,,37.437751,140.542700,Z1760-1,,0,,,
1760-2,,永畑,,37.437683,140.542680,Z1760-2,,0,,,
1761-1,,道ノ原,,37.437056,140.546550,Z1761-1,,0,,,
1761-2,,道ノ原,,37.437029,140.546217,Z1761-2,,0,,,
1762-1,,春山,,37.436819,140.552674,Z1762-1,,0,,,
1762-2,,春山,,37.436502,140.552407,Z1762-2,,0,,,
1763-1,,花木内,,37.441588,140.560802,Z1763-1,,0,,,
1763-2,,花木内,,37.441492,140.560662,Z1763-2,,0,,,
1764-1,,城の内,,37.439655,140.567791,Z1764-1,,0,,,
1764-2,,城の内,,37.439598,140.567811,Z1764-2,,0,,,
1765-1,,中町,,37.438632,140.574404,Z1765-1,,0,,,
1765-2,,中町,,37.438663,140.574137,Z1765-2,,0,,,
1766-1,,栄町,,37.440179,140.576144,Z1766-1,,0,,,
1766-2,,栄町,,37.440355,140.575884,Z1766-2,,0,,,
1767-1,,船引駅前,,37.443039,140.574311,Z1767-1,,0,,,
1775-1,,八山田,,37.428178,140.382508,Z1775-1,,0,,,
1775-2,,八山田,,37.428849,140.382501,Z1775-2,,0,,,
1776-1,,経堂,,37.436682,140.380396,Z1776-1,,0,,,
1776-2,,経堂,,37.433854,140.381271,Z1776-2,,0,,,
1777-1,,原,,37.440817,140.379657,Z1777-1,,0,,,
1777-2,,原,,37.439850,140.379945,Z1777-2,,0,,,
1855-1,,郡山インター前,,37.430003,140.343428,Z1855-1,,0,,,
1855-2,,郡山インター前,,37.430975,140.343437,Z1855-2,,0,,,
1856-1,,西原入口,,37.434590,140.340854,Z1856-1,,0,,,
1856-2,,西原入口,,37.433869,140.341623,Z1856-2,,0,,,
1857-1,,トラックセンター,,37.437669,140.341617,Z1857-1,,0,,,
1857-2,,トラックセンター,,37.437711,140.341808,Z1857-2,,0,,,
1858-1,,卸センター,,37.441460,140.339478,Z1858-1,,0,,,
1858-2,,卸センター,,37.441614,140.339565,Z1858-2,,0,,,
1859-1,,松ヶ作,,37.438109,140.338745,Z1859-1,,0,,,
1859-2,,松ヶ作,,37.437886,140.339078,Z1859-2,,0,,,
1860-1,,向原,,37.445211,140.336942,Z1860-1,,0,,,
1860-2,,向原,,37.446362,140.337272,Z1860-2,,0,,,
1861-1,,地田下,,37.450360,140.337249,Z1861-1,,0,,,
1861-2,,地田下,,37.450328,140.337445,Z1861-2,,0,,,
1862-1,,堀の内,,37.454058,140.335736,Z1862-1,,0,,,
1862-2,,堀の内,,37.454128,140.335897,Z1862-2,,0,,,
1863-1,,釜場西,,37.458821,140.332866,Z1863-1,,0,,,
1863-2,,釜場西,,37.458092,140.333862,Z1863-2,,0,,,
1864-1,,棚倉,,37.462584,140.327425,Z1864-1,,0,,,
1864-2,,棚倉,,37.462704,140.327385,Z1864-2,,0,,,
1865-1,,一の谷,,37.466018,140.323123,Z1865-1,,0,,,
1865-2,,一の谷,,37.465625,140.323709,Z1865-2,,0,,,
1872-1,,熱海三丁目,,37.479125,140.273963,Z1872-1,,0,,,
1872-2,,熱海三丁目,,37.479425,140.272750,Z1872-2,,0,,,
1873-1,,熱海駅,,37.481058,140.271276,Z1873-1,,0,,,
1874-1,,新熱海,,37.481909,140.268545,Z1874-1,,0,,,
1874-2,,新熱海,,37.482232,140.268175,Z1874-2,,0,,,
1875-1,,並柳,,37.484063,140.265590,Z1875-1,,0,,,
1875-2,,並柳,,37.484031,140.265700,Z1875-2,,0,,,
1876-1,,太田熱海病院,,37.486889,140.263349,Z1876-1,,0,,,
1876-2,,太田熱海病院,,37.486786,140.263601,Z1876-2,,0,,,
1877-1,,熱海荒町,,37.488922,140.261230,Z1877-1,,0,,,
1877-2,,熱海荒町,,37.488112,140.262020,Z1877-2,,0,,,
1880-1,,太良,,37.470023,140.319029,Z1880-1,,0,,,
1881-1,,安子ヶ島,,37.474736,140.309128,Z1881-1,,0,,,
1882-1,,安子ヶ島上町,,37.475191,140.307003,Z1882-1,,0,,,
1883-1,,安子ヶ島寺前,,37.476550,140.305447,Z1883-1,,0,,,
1884-1,,玉川,,37.480177,140.299724,Z1884-1,,0,,,
1884-2,,玉川,,37.480282,140.299612,Z1884-2,,0,,,
1885-1,,熱海中学校,,37.481797,140.289856,Z1885-1,,0,,,
1885-2,,熱海中学校,,37.481805,140.290555,Z1885-2,,0,,,
1886-1,,玉川ホーム,,37.482269,140.285723,Z1886-1,,0,,,
1886-2,,玉川ホーム,,37.482247,140.286461,Z1886-2,,0,,,
1887-1,,熱海グランド前,,37.482510,140.280285,Z1887-1,,0,,,
1887-2,,熱海グランド前,,37.482586,140.280491,Z1887-2,,0,,,
1888-1,,熱海一丁目,,37.483267,140.273539,Z1888-1,,0,,,
1923-1,,希望ヶ丘,,37.408824,140.337882,Z1923-1,,0,,,
1923-2,,希望ヶ丘,,37.408755,140.338061,Z1923-2,,0,,,
1924-1,,うねめ団地,,37.411167,140.334641,Z1924-1,,0,,,
1924-2,,うねめ団地,,37.410999,140.335164,Z1924-2,,0,,,
1925-1,,蟻塚,,37.413258,140.332700,Z1925-1,,0,,,
1935-1,,小山田団地,,37.405377,140.337416,Z1935-1,,0,,,
1935-2,,小山田団地,,37.405069,140.337406,Z1935-2,,0,,,
1936-1,,郡山高校,,37.402963,140.335167,Z1936-1,,0,,,
1936-2,,郡山高校,,37.402778,140.335170,Z1936-2,,0,,,
1937-1,,中野,,37.389977,140.327198,Z1937-1,,0,,,
1938-1,,大槻旭町,,37.389525,140.325462,Z1938-1,,0,,,
1939-1,,大槻下町,,37.388805,140.321698,Z1939-1,,0,,,
1939-2,,大槻下町,,37.388881,140.322160,Z1939-2,,0,,,
1940-1,,大槻上町,,37.388504,140.318515,Z1940-1,,0,,,
1940-2,,大槻上町,,37.388573,140.318508,Z1940-2,,0,,,
1941-1,,大槻郵便局,,37.387364,140.315212,Z1941-1,,0,,,
1941-2,,大槻郵便局,,37.387464,140.315030,Z1941-2,,0,,,
1995-1,,大徳南,,37.407406,140.334906,Z1995-1,,0,,,
1995-2,,大徳南,,37.407467,140.335442,Z1995-2,,0,,,
1996-1,,高森,,37.406419,140.330922,Z1996-1,,0,,,
1996-2,,高森,,37.405964,140.330004,Z1996-2,,0,,,
1997-1,,土瓜,,37.402807,140.327233,Z1997-1,,0,,,
1997-2,,土瓜,,37.403572,140.327620,Z1997-2,,0,,,
1998-1,,自衛隊,,37.398875,140.324210,Z1998-1,,0,,,
1998-2,,自衛隊,,37.399219,140.324527,Z1998-2,,0,,,
1999-1,,西の宮,,37.396097,140.320894,Z1999-1,,0,,,
1999-2,,西の宮,,37.396901,140.321751,Z1999-2,,0,,,
2000-1,,大槻中学校,,37.394230,140.319499,Z2000-1,,0,,,
2000-2,,大槻中学校,,37.394106,140.319416,Z2000-2,,0,,,
2000-3,,大槻中学校,,37.395522,140.319282,Z2000-3,,0,,,
2024-1,,町守屋,,37.332456,140.234492,Z2024-1,,0,,,
2025-1,,岩瀬二本木,,37.327128,140.240171,Z2025-1,,0,,,
2026-1,,里守屋,,37.325350,140.242492,Z2026-1,,0,,,
2027-1,,七ツ石,,37.322851,140.244043,Z2027-1,,0,,,
2028-1,,岩瀬向原,,37.321786,140.230271,Z2028-1,,0,,,
2028-2,,岩瀬向原,,37.321749,140.229932,Z2028-2,,0,,,
2029-1,,岩瀬梅田,,37.317625,140.228100,Z2029-1,,0,,,
2030-1,,上梅田,,37.316010,140.224870,Z2030-1,,0,,,
2031-1,,岩瀬新田,,37.315517,140.218653,Z2031-1,,0,,,
2032-1,,屋敷東,,37.316775,140.214218,Z2032-1,,0,,,
2033-1,,滝原,,37.317536,140.210567,Z2033-1,,0,,,
2038-1,,長沼小学校,,37.292809,140.214244,Z2038-1,,0,,,
2039-1,,上金町,,37.289797,140.213327,Z2039-1,,0,,,
2039-2,,上金町,,37.289713,140.214059,Z2039-2,,0,,,
2040-1,,豊町,,37.290579,140.212171,Z2040-1,,0,,,
2040-2,,豊町,,37.291156,140.212191,Z2040-2,,0,,,
2041-1,,長沼車庫,,37.291091,140.209903,Z2041-1,,0,,,
2041-2,,長沼車庫,,37.291229,140.210276,Z2041-2,,0,,,
2042-1,,安積行政センター入口,,37.362142,140.368223,Z2042-1,,0,,,
2042-2,,安積行政センター入口,,37.362776,140.368285,Z2042-2,,0,,,
2042-3,,安積行政センター入口,,37.362288,140.367328,Z2042-3,,0,,,
2043-1,,安積行政センター,,37.363261,140.366171,Z2043-1,,0,,,
2043-2,,安積行政センター,,37.363883,140.365686,Z2043-2,,0,,,
2045-1,,安積団地入口,,37.364220,140.357351,Z2045-1,,0,,,
2046-1,,西長久保,,37.363147,140.356028,Z2046-1,,0,,,
2047-1,,安積団地,,37.362420,140.354114,Z2047-1,,0,,,
2048-1,,檜の下,,37.355697,140.365398,Z2048-1,,0,,,
2048-2,,檜の下,,37.355329,140.365056,Z2048-2,,0,,,
2061-1,,西笹川,,37.349283,140.363003,Z2061-1,,0,,,
2061-2,,西笹川,,37.348658,140.362673,Z2061-2,,0,,,
2062-1,,雷堂,,37.344707,140.362347,Z2062-1,,0,,,
2062-2,,雷堂,,37.345434,140.362265,Z2062-2,,0,,,
2063-1,,十貫内入口,,37.338979,140.361756,Z2063-1,,0,,,
2063-2,,十貫内入口,,37.340956,140.361637,Z2063-2,,0,,,
2064-1,,大谷地入口,,37.331406,140.361755,Z2064-1,,0,,,
2064-2,,大谷地入口,,37.331778,140.361467,Z2064-2,,0,,,
2065-1,,関下,,37.326039,140.362884,Z2065-1,,0,,,
2065-2,,関下,,37.326699,140.362498,Z2065-2,,0,,,
2066-1,,向日向,,37.316340,140.364841,Z2066-1,,0,,,
2066-2,,向日向,,37.315561,140.364786,Z2066-2,,0,,,
2067-1,,北団地,,37.311763,140.365779,Z2067-1,,0,,,
2067-2,,北団地,,37.309387,140.366013,Z2067-2,,0,,,
2068-1,,池の上,,37.307120,140.366751,Z2068-1,,0,,,
2068-2,,池の上,,37.306268,140.366736,Z2068-2,,0,,,
2069-1,,山寺,,37.300275,140.367647,Z2069-1,,0,,,
2069-2,,山寺,,37.301745,140.367238,Z2069-2,,0,,,
2070-1,,山桜工場前,,37.361365,140.374147,Z2070-1,,0,,,
2070-2,,山桜工場前,,37.361517,140.374130,Z2070-2,,0,,,
2071-1,,笹川二丁目,,37.359643,140.373174,Z2071-1,,0,,,
2071-2,,笹川二丁目,,37.359487,140.372952,Z2071-2,,0,,,
2072-1,,永盛駅前,,37.356306,140.370396,Z2072-1,,0,,,
2072-2,,永盛駅前,,37.357518,140.370895,Z2072-2,,0,,,
2073-1,,笹川三丁目,,37.353896,140.369800,Z2073-1,,0,,,
2073-2,,笹川三丁目,,37.353775,140.369698,Z2073-2,,0,,,
2074-1,,笹川,,37.351234,140.369164,Z2074-1,,0,,,
2074-2,,笹川,,37.350920,140.368971,Z2074-2,,0,,,
2075-1,,御代田入口,,37.345092,140.370391,Z2075-1,,0,,,
2075-2,,御代田入口,,37.345822,140.370006,Z2075-2,,0,,,
2076-1,,十貫内,,37.338786,140.372865,Z2076-1,,0,,,
2077-1,,滑川,,37.326255,140.373607,Z2077-1,,0,,,
2078-1,,八方久保,,37.322953,140.372873,Z2078-1,,0,,,
2079-1,,下宿,,37.308197,140.373771,Z2079-1,,0,,,
2080-1,,二中入口,,37.305429,140.371584,Z2080-1,,0,,,
2081-1,,金屋,,37.360245,140.396712,Z2081-1,,0,,,
2081-2,,金屋,,37.360351,140.396612,Z2081-2,,0,,,
2082-1,,大善寺,,37.350792,140.399800,Z2082-1,,0,,,
2082-2,,大善寺,,37.351593,140.399214,Z2082-2,,0,,,
2083-1,,鬼越,,37.341718,140.405402,Z2083-1,,0,,,
2083-2,,鬼越,,37.342579,140.404736,Z2083-2,,0,,,
2084-1,,山中,,37.339225,140.406960,Z2084-1,,0,,,
2084-2,,山中,,37.339067,140.406932,Z2084-2,,0,,,
2085-1,,守山大町,,37.335126,140.409905,Z2085-1,,0,,,
2085-2,,守山大町,,37.334876,140.410014,Z2085-2,,0,,,
2086-1,,守山小学校,,37.331294,140.411568,Z2086-1,,0,,,
2086-2,,守山小学校,,37.330371,140.411478,Z2086-2,,0,,,
2087-1,,守山中町,,37.326972,140.412265,Z2087-1,,0,,,
2087-2,,守山中町,,37.326970,140.412154,Z2087-2,,0,,,
2088-1,,岩作,,37.323923,140.415008,Z2088-1,,0,,,
2088-2,,岩作,,37.322932,140.415562,Z2088-2,,0,,,
2089-1,,矢平,,37.317937,140.430636,Z2089-1,,0,,,
2089-2,,矢平,,37.318000,140.430137,Z2089-2,,0,,,
2090-1,,谷田川駅入口,,37.317216,140.433399,Z2090-1,,0,,,
2090-2,,谷田川駅入口,,37.317032,140.433615,Z2090-2,,0,,,
2091-1,,谷田川町畑,,37.314182,140.437857,Z2091-1,,0,,,
2091-2,,谷田川町畑,,37.314377,140.437547,Z2091-2,,0,,,
2092-1,,谷田川宮下,,37.313317,140.439367,Z2092-1,,0,,,
2092-2,,谷田川宮下,,37.313124,140.439657,Z2092-2,,0,,,
2093-1,,谷田川北田,,37.312238,140.447082,Z2093-1,,0,,,
2093-2,,谷田川北田,,37.312055,140.447120,Z2093-2,,0,,,
2094-1,,谷田川小学校,,37.311129,140.449982,Z2094-1,,0,,,
2094-2,,谷田川小学校,,37.311098,140.450314,Z2094-2,,0,,,
2095-1,,鈴ヶ内,,37.313023,140.458527,Z2095-1,,0,,,
2095-2,,鈴ヶ内,,37.312901,140.458228,Z2095-2,,0,,,
2096-1,,谷田川局前,,37.313641,140.460204,Z2096-1,,0,,,
2096-2,,谷田川局前,,37.313772,140.460630,Z2096-2,,0,,,
2097-1,,竜ヶ馬場,,37.313891,140.468300,Z2097-1,,0,,,
2097-2,,竜ヶ馬場,,37.313770,140.468488,Z2097-2,,0,,,
2098-1,,竜ヶ渕,,37.311512,140.476236,Z2098-1,,0,,,
2098-2,,竜ヶ渕,,37.311370,140.476732,Z2098-2,,0,,,
2099-1,,栃本,,37.311139,140.481942,Z2099-1,,0,,,
2099-2,,栃本,,37.310859,140.483483,Z2099-2,,0,,,
2100-1,,市穀,,37.309043,140.486934,Z2100-1,,0,,,
2100-2,,市穀,,37.308763,140.487154,Z2100-2,,0,,,
2101-1,,水沢,,37.307043,140.488681,Z2101-1,,0,,,
2101-2,,水沢,,37.306758,140.488715,Z2101-2,,0,,,
2102-1,,坂下,,37.303499,140.491739,Z2102-1,,0,,,
2102-2,,坂下,,37.304147,140.491468,Z2102-2,,0,,,
2103-1,,樋ノ口,,37.299671,140.496661,Z2103-1,,0,,,
2104-1,,大花,,37.301338,140.496996,Z2104-1,,0,,,
2105-1,,反田,,37.301625,140.500019,Z2105-1,,0,,,
2106-1,,糠塚下,,37.301548,140.505006,Z2106-1,,0,,,
2106-2,,糠塚下,,37.301401,140.504874,Z2106-2,,0,,,
2107-1,,糠塚寺前,,37.301530,140.509442,Z2107-1,,0,,,
2107-2,,糠塚寺前,,37.301407,140.509486,Z2107-2,,0,,,
2108-1,,牛骨,,37.294028,140.522079,Z2108-1,,0,,,
2108-2,,牛骨,,37.293851,140.522166,Z2108-2,,0,,,
2109-1,,段の下,,37.291644,140.529184,Z2109-1,,0,,,
2109-2,,段の下,,37.291658,140.528908,Z2109-2,,0,,,
2110-1,,田母神,,37.293212,140.538069,Z2110-1,,0,,,
2110-2,,田母神,,37.293232,140.538276,Z2110-2,,0,,,
2116-1,,闇沢,,37.279821,140.546276,Z2116-1,,0,,,
2116-2,,闇沢,,37.280155,140.545853,Z2116-2,,0,,,
2117-1,,大柏木,,37.269829,140.551574,Z2117-1,,0,,,
2117-2,,大柏木,,37.269737,140.551523,Z2117-2,,0,,,
2118-1,,上新田,,37.265559,140.555048,Z2118-1,,0,,,
2118-2,,上新田,,37.265918,140.554801,Z2118-2,,0,,,
2119-1,,下新田,,37.255661,140.559062,Z2119-1,,0,,,
2119-2,,下新田,,37.256073,140.558799,Z2119-2,,0,,,
2120-1,,横森前,,37.247666,140.563702,Z2120-1,,0,,,
2120-2,,横森前,,37.247555,140.563677,Z2120-2,,0,,,
2121-1,,清水内,,37.242750,140.569011,Z2121-1,,0,,,
2122-1,,上蓬田,,37.240839,140.569618,Z2122-1,,0,,,
2122-2,,上蓬田,,37.240971,140.569423,Z2122-2,,0,,,
2146-1,,小姓町,,37.334761,140.411728,Z2146-1,,0,,,
2147-1,,中原,,37.336905,140.423307,Z2147-1,,0,,,
2148-1,,金沢橋,,37.338528,140.426242,Z2148-1,,0,,,
2149-1,,的場,,37.339272,140.428721,Z2149-1,,0,,,
2150-1,,仁井田本家入口,,37.342044,140.435259,Z2150-1,,0,,,
2151-1,,石屋団地,,37.344404,140.436925,Z2151-1,,0,,,
2152-1,,東山霊園,,37.346627,140.439104,Z2152-1,,0,,,
2155-1,,向川原,,37.382736,140.419175,Z2155-1,,0,,,
2156-1,,大平,,37.383765,140.423202,Z2156-1,,0,,,
2157-1,,宮の前,,37.389720,140.428162,Z2157-1,,0,,,
2158-1,,蒲倉,,37.391885,140.434102,Z2158-1,,0,,,
2159-1,,荒井,,37.390011,140.442493,Z2159-1,,0,,,
2172-1,,行合台,,37.373898,140.415873,Z2172-1,,0,,,
2172-2,,行合台,,37.373739,140.416088,Z2172-2,,0,,,
2173-1,,永田,,37.371130,140.420067,Z2173-1,,0,,,
2174-1,,赤沼,,37.370239,140.429435,Z2174-1,,0,,,
2175-1,,宮城小学校,,37.372003,140.441272,Z2175-1,,0,,,
2176-1,,宮城中学校,,37.370328,140.444567,Z2176-1,,0,,,
2176-2,,宮城中学校,,37.370385,140.444435,Z2176-2,,0,,,
2177-1,,高倉舘,,37.368831,140.446799,Z2177-1,,0,,,
2178-1,,出店,,37.363518,140.451457,Z2178-1,,0,,,
2178-2,,出店,,37.363450,140.451056,Z2178-2,,0,,,
2179-1,,永橋,,37.364939,140.459249,Z2179-1,,0,,,
2180-1,,海老根,,37.360517,140.467433,Z2180-1,,0,,,
2181-1,,石堂,,37.353578,140.480078,Z2181-1,,0,,,
2181-2,,石堂,,37.353495,140.480113,Z2181-2,,0,,,
2182-1,,下枝郵便局,,37.353676,140.481940,Z2182-1,,0,,,
2183-1,,久保,,37.353730,140.483868,Z2183-1,,0,,,
2184-1,,中田行政センター,,37.356427,140.489057,Z2184-1,,0,,,
2185-1,,下枝舘,,37.360874,140.494640,Z2185-1,,0,,,
2186-1,,貝作入口,,37.360307,140.498865,Z2186-1,,0,,,
2187-1,,五百目,,37.361036,140.504438,Z2187-1,,0,,,
2187-2,,五百目,,37.361323,140.503715,Z2187-2,,0,,,
2188-1,,御舘小学校,,37.360337,140.510518,Z2188-1,,0,,,
2188-2,,御舘小学校,,37.360210,140.510881,Z2188-2,,0,,,
2189-1,,中津川,,37.358479,140.514234,Z2189-1,,0,,,
2190-1,,柳橋袖,,37.361778,140.518690,Z2190-1,,0,,,
2191-1,,下の内上,,37.362853,140.521664,Z2191-1,,0,,,
2192-1,,柳橋,,37.363871,140.523840,Z2192-1,,0,,,
2193-1,,岩崎,,37.364009,140.528295,Z2193-1,,0,,,
2194-1,,黒石山入口,,37.363310,140.530265,Z2194-1,,0,,,
2195-1,,高谷入口,,37.359618,140.531890,Z2195-1,,0,,,
2196-1,,中倉,,37.357560,140.539639,Z2196-1,,0,,,
2197-1,,池の坂,,37.353951,140.548632,Z2197-1,,0,,,
2198-1,,北の内,,37.350723,140.552208,Z2198-1,,0,,,
2199-1,,石山入口,,37.347614,140.554881,Z2199-1,,0,,,
2200-1,,浮金,,37.343400,140.559013,Z2200-1,,0,,,
2201-1,,高柴山入口,,37.343286,140.560961,Z2201-1,,0,,,
2202-1,,機械場,,37.340483,140.566752,Z2202-1,,0,,,
2203-1,,上合内,,37.337837,140.571290,Z2203-1,,0,,,
2204-1,,浮金追分,,37.335842,140.575083,Z2204-1,,0,,,
2205-1,,早渡,,37.329869,140.589349,Z2205-1,,0,,,
2206-1,,行定,,37.319277,140.594620,Z2206-1,,0,,,
2207-1,,田尻,,37.316096,140.603365,Z2207-1,,0,,,
2208-1,,飯豊局前,,37.311779,140.614148,Z2208-1,,0,,,
2209-1,,宮の下,,37.305172,140.618243,Z2209-1,,0,,,
2210-1,,二本木,,37.301986,140.618730,Z2210-1,,0,,,
2211-1,,坂東内,,37.297693,140.619737,Z2211-1,,0,,,
2212-1,,消防署前,,37.292041,140.624353,Z2212-1,,0,,,
2212-2,,消防署前,,37.292309,140.623970,Z2212-2,,0,,,
2213-1,,公立小野町地方綜合病院前,,37.289475,140.626543,Z2213-1,,0,,,
2214-1,,品の木,,37.287783,140.627581,Z2214-1,,0,,,
2215-1,,役場前,,37.286351,140.627820,Z2215-1,,0,,,
2216-1,,仲町,,37.285239,140.627768,Z2216-1,,0,,,
2217-1,,小野荒町,,37.283400,140.627144,Z2217-1,,0,,,
2217-2,,小野荒町,,37.284388,140.627106,Z2217-2,,0,,,
2218-1,,門番,,37.282540,140.627124,Z2218-1,,0,,,
2219-1,,小学校入口,,37.281637,140.627918,Z2219-1,,0,,,
2220-1,,中通,,37.280007,140.630376,Z2220-1,,0,,,
2221-1,,小野営業所,,37.278429,140.632730,Z2221-1,,0,,,
2222-1,,平舘,,37.277219,140.634561,Z2222-1,,0,,,
2223-1,,小野駅前,,37.275144,140.636398,Z2223-1,,0,,,
2224-1,,新道,,37.299284,140.368776,Z2224-1,,0,,,
2224-2,,新道,,37.299141,140.369440,Z2224-2,,0,,,
2225-1,,須賀川駅前,,37.299926,140.371972,Z2225-1,,0,,,
2225-2,,須賀川駅前,,37.299891,140.371997,Z2225-2,,0,,,
2226-1,,須賀川栄町,,37.298178,140.373019,Z2226-1,,0,,,
2226-2,,須賀川栄町,,37.298166,140.372869,Z2226-2,,0,,,
2226-3,,須賀川栄町,,37.297696,140.370913,Z2226-3,,0,,,
2227-1,,公立病院前,,37.294565,140.375729,Z2227-1,,0,,,
2227-2,,公立病院前,,37.294418,140.375961,Z2227-2,,0,,,
2228-1,,北町,,37.291910,140.376017,Z2228-1,,0,,,
2228-2,,北町,,37.291750,140.375904,Z2228-2,,0,,,
2229-1,,宮先町,,37.289748,140.375851,Z2229-1,,0,,,
2229-2,,宮先町,,37.289677,140.375735,Z2229-2,,0,,,
2230-1,,須賀川中町,,37.287836,140.375553,Z2230-1,,0,,,
2230-2,,須賀川中町,,37.288148,140.375518,Z2230-2,,0,,,
2231-1,,須賀川本町,,37.285851,140.375041,Z2231-1,,0,,,
2231-2,,須賀川本町,,37.286156,140.375068,Z2231-2,,0,,,
2232-1,,須賀川大町,,37.284558,140.374406,Z2232-1,,0,,,
2232-2,,須賀川大町,,37.284575,140.374302,Z2232-2,,0,,,
2233-1,,須賀川南町,,37.283209,140.373537,Z2233-1,,0,,,
2233-2,,須賀川南町,,37.283383,140.373521,Z2233-2,,0,,,
2233-3,,須賀川南町,,37.283861,140.373195,Z2233-3,,0,,,
2234-1,,並木町,,37.280583,140.371038,Z2234-1,,0,,,
2235-1,,須賀川商工会館前,,37.286868,140.378019,Z2235-1,,0,,,
2235-2,,須賀川商工会館前,,37.287020,140.376321,Z2235-2,,0,,,
2237-1,,八幡町,,37.287524,140.372783,Z2237-1,,0,,,
2237-2,,八幡町,,37.287387,140.374381,Z2237-2,,0,,,
2238-1,,市役所入口,,37.285724,140.370923,Z2238-1,,0,,,
2238-2,,市役所入口,,37.285728,140.370840,Z2238-2,,0,,,
2240-1,,六軒入口,,37.283471,140.374176,Z2240-1,,0,,,
2241-1,,諏訪町,,37.291012,140.373678,Z2241-1,,0,,,
2242-1,,弘法坦,,37.290651,140.370594,Z2242-1,,0,,,
2242-2,,弘法坦,,37.291244,140.371113,Z2242-2,,0,,,
2243-1,,西川橋,,37.291636,140.363592,Z2243-1,,0,,,
2243-2,,西川橋,,37.291338,140.363751,Z2243-2,,0,,,
2244-1,,西川,,37.295702,140.359801,Z2244-1,,0,,,
2244-2,,西川,,37.296057,140.359986,Z2244-2,,0,,,
2245-1,,西袋一小前,,37.297670,140.354252,Z2245-1,,0,,,
2245-2,,西袋一小前,,37.297760,140.354420,Z2245-2,,0,,,
2246-1,,上八幡町,,37.288057,140.370235,Z2246-1,,0,,,
2246-2,,上八幡町,,37.288127,140.370385,Z2246-2,,0,,,
2246-3,,上八幡町,,37.288520,140.371315,Z2246-3,,0,,,
2247-1,,大黒町,,37.288818,140.367512,Z2247-1,,0,,,
2247-2,,大黒町,,37.289125,140.366903,Z2247-2,,0,,,
2249-1,,笠原工業前,,37.300111,140.376769,Z2249-1,,0,,,
2258-1,,鍋師橋,,37.281317,140.375686,Z2258-1,,0,,,
2259-1,,寺田,,37.277777,140.376987,Z2259-1,,0,,,
2260-1,,六軒団地,,37.273997,140.378874,Z2260-1,,0,,,
2260-2,,六軒団地,,37.274489,140.378672,Z2260-2,,0,,,
2261-1,,六軒,,37.269790,140.381311,Z2261-1,,0,,,
2264-1,,岩農,,37.252662,140.367260,Z2264-1,,0,,,
2265-1,,岩瀬牧場,,37.252259,140.365481,Z2265-1,,0,,,
2266-1,,俵井,,37.251321,140.358557,Z2266-1,,0,,,
2267-1,,牛ヶ池,,37.253056,140.350385,Z2267-1,,0,,,
2268-1,,鏡石駅前,,37.251123,140.346135,Z2268-1,,0,,,
2268-2,,鏡石駅前,,37.250986,140.346235,Z2268-2,,0,,,
2435-1,,北区入口,,37.446318,140.572363,Z2435-1,,0,,,
2436-1,,時の宮,,37.450058,140.573628,Z2436-1,,0,,,
2437-1,,原,,37.454955,140.575932,Z2437-1,,0,,,
2438-1,,大山原,,37.459070,140.575559,Z2438-1,,0,,,
2439-1,,沼の下,,37.464634,140.571556,Z2439-1,,0,,,
2440-1,,門鹿,,37.472298,140.572731,Z2440-1,,0,,,
2441-1,,美山入口,,37.476154,140.574300,Z2441-1,,0,,,
2442-1,,沢石入口,,37.479258,140.574587,Z2442-1,,0,,,
2443-1,,大倉,,37.486082,140.574378,Z2443-1,,0,,,
2444-1,,瀬川局前,,37.488634,140.574877,Z2444-1,,0,,,
2445-1,,瀬川,,37.491549,140.576197,Z2445-1,,0,,,
2446-1,,新舘,,37.493524,140.579836,Z2446-1,,0,,,
2447-1,,瀬川住民センター,,37.495577,140.583396,Z2447-1,,0,,,
2448-1,,石橋,,37.497978,140.592872,Z2448-1,,0,,,
2449-1,,山口,,37.500855,140.597100,Z2449-1,,0,,,
2450-1,,石沢,,37.503948,140.603832,Z2450-1,,0,,,
2450-2,,石沢,,37.503886,140.604053,Z2450-2,,0,,,
2451-1,,ひじ曲,,37.505600,140.612591,Z2451-1,,0,,,
2452-1,,大石,,37.507518,140.620399,Z2452-1,,0,,,
2453-1,,水中内,,37.508358,140.625056,Z2453-1,,0,,,
2454-1,,岩登,,37.508703,140.628322,Z2454-1,,0,,,
2455-1,,南移入口,,37.510691,140.635068,Z2455-1,,0,,,
2456-1,,西作入口,,37.511613,140.637497,Z2456-1,,0,,,
2457-1,,水の木入口,,37.511708,140.640523,Z2457-1,,0,,,
2458-1,,東作入口,,37.513613,140.645142,Z2458-1,,0,,,
2459-1,,船引根岸,,37.514131,140.648656,Z2459-1,,0,,,
2460-1,,平入口,,37.514159,140.651957,Z2460-1,,0,,,
2461-1,,移農協前,,37.514293,140.654229,Z2461-1,,0,,,
2462-1,,上移,,37.514180,140.658650,Z2462-1,,0,,,
2463-1,,移車庫,,37.513607,140.661278,Z2463-1,,0,,,
2557-1,,青石入口,,37.509288,140.603703,Z2557-1,,0,,,
2558-1,,深谷,,37.519398,140.606805,Z2558-1,,0,,,
2562-1,,石神,,37.464829,140.581533,Z2562-1,,0,,,
2563-1,,旦の平,,37.470239,140.585532,Z2563-1,,0,,,
2564-1,,美山小学校下,,37.471921,140.587644,Z2564-1,,0,,,
2565-1,,南入口,,37.475030,140.587946,Z2565-1,,0,,,
2566-1,,館入口,,37.476827,140.587372,Z2566-1,,0,,,
2567-1,,一本松,,37.478795,140.585949,Z2567-1,,0,,,
2568-1,,船引大平,,37.483987,140.590294,Z2568-1,,0,,,
2569-1,,上長外路,,37.490716,140.591480,Z2569-1,,0,,,
2592-1,,中の内,,37.439485,140.595454,Z2592-1,,0,,,
2593-1,,板橋入口,,37.441552,140.603864,Z2593-1,,0,,,
2594-1,,真城,,37.442003,140.609903,Z2594-1,,0,,,
2595-1,,西向,,37.442350,140.615667,Z2595-1,,0,,,
2596-1,,上鹿山入口,,37.442045,140.619123,Z2596-1,,0,,,
2597-1,,川久保,,37.441133,140.627886,Z2597-1,,0,,,
2598-1,,西田,,37.440990,140.632475,Z2598-1,,0,,,
2598-2,,西田,,37.441014,140.631897,Z2598-2,,0,,,
2599-1,,常光寺,,37.439594,140.635843,Z2599-1,,0,,,
2600-1,,常葉荒町,,37.438667,140.640801,Z2600-1,,0,,,
2600-2,,常葉荒町,,37.438607,140.640470,Z2600-2,,0,,,
2601-1,,常葉中町,,37.438762,140.643344,Z2601-1,,0,,,
2601-2,,常葉中町,,37.438716,140.643501,Z2601-2,,0,,,
2602-1,,常葉局前,,37.438913,140.644848,Z2602-1,,0,,,
2602-2,,常葉局前,,37.438797,140.645783,Z2602-2,,0,,,
2603-1,,常葉上町,,37.438690,140.647785,Z2603-1,,0,,,
2603-2,,常葉上町,,37.438569,140.648188,Z2603-2,,0,,,
2604-1,,本坊,,37.437575,140.649917,Z2604-1,,0,,,
2605-1,,石蒔田,,37.436839,140.656494,Z2605-1,,0,,,
2606-1,,堀田入口,,37.434142,140.661729,Z2606-1,,0,,,
2607-1,,四重城入口,,37.434226,140.664149,Z2607-1,,0,,,
2608-1,,沢又入口,,37.443759,140.670540,Z2608-1,,0,,,
2609-1,,余平田,,37.445925,140.670522,Z2609-1,,0,,,
2610-1,,山根,,37.451438,140.678452,Z2610-1,,0,,,
2611-1,,雨乞平,,37.454592,140.688907,Z2611-1,,0,,,
2612-1,,北作入口,,37.457833,140.705750,Z2612-1,,0,,,
2613-1,,西戸,,37.457346,140.715928,Z2613-1,,0,,,
2614-1,,平内地,,37.458661,140.725342,Z2614-1,,0,,,
2615-1,,岩井沢,,37.458115,140.732705,Z2615-1,,0,,,
2616-1,,平蔵内,,37.458458,140.736720,Z2616-1,,0,,,
2617-1,,言神入口,,37.459430,140.740444,Z2617-1,,0,,,
2618-1,,楢梨,,37.459622,140.752928,Z2618-1,,0,,,
2619-1,,新田,,37.457554,140.760470,Z2619-1,,0,,,
2620-1,,上道の内,,37.453907,140.765301,Z2620-1,,0,,,
2621-1,,中屋敷,,37.451992,140.766421,Z2621-1,,0,,,
2622-1,,下道の内,,37.449948,140.770376,Z2622-1,,0,,,
2622-2,,下道の内,,37.449908,140.770319,Z2622-2,,0,,,
2623-1,,芹沢,,37.445372,140.777033,Z2623-1,,0,,,
2625-1,,都路小学校前,,37.437920,140.793600,Z2625-1,,0,,,
2626-1,,都路行政局,,37.436083,140.795091,Z2626-1,,0,,,
2626-2,,都路行政局,,37.435566,140.795344,Z2626-2,,0,,,
2627-1,,古道車庫,,37.435105,140.798383,Z2627-1,,0,,,
2720-1,,小野本町,,37.285058,140.624574,Z2720-1,,0,,,
2721-1,,小野高校,,37.284740,140.622712,Z2721-1,,0,,,
2738-1,,中沢入口,,37.264225,140.629736,Z2738-1,,0,,,
2739-1,,百目木沢,,37.260097,140.633185,Z2739-1,,0,,,
2740-1,,折の内,,37.251146,140.637457,Z2740-1,,0,,,
2741-1,,河和久,,37.244130,140.632928,Z2741-1,,0,,,
2742-1,,阿勢婦,,37.240015,140.630544,Z2742-1,,0,,,
2743-1,,永志田,,37.239181,140.628027,Z2743-1,,0,,,
2744-1,,長賀,,37.240711,140.621057,Z2744-1,,0,,,
2745-1,,諏訪神社,,37.232707,140.616542,Z2745-1,,0,,,
2746-1,,上羽出庭,,37.231050,140.614711,Z2746-1,,0,,,
2747-1,,宮作,,37.229286,140.608319,Z2747-1,,0,,,
2748-1,,五の神,,37.227492,140.605398,Z2748-1,,0,,,
2749-1,,沢名,,37.223041,140.600139,Z2749-1,,0,,,
2750-1,,上鴇子,,37.218870,140.598384,Z2750-1,,0,,,
2752-1,,立石,,37.221369,140.588384,Z2752-1,,0,,,
2753-1,,下鴇子,,37.221943,140.584110,Z2753-1,,0,,,
2754-1,,塚田,,37.220800,140.580817,Z2754-1,,0,,,
2755-1,,平田村役場前,,37.220398,140.574951,Z2755-1,,0,,,
2756-1,,永田広町,,37.217936,140.571547,Z2756-1,,0,,,
2757-1,,永田局前,,37.217118,140.572094,Z2757-1,,0,,,
2758-1,,中永田,,37.215879,140.581123,Z2758-1,,0,,,
2759-1,,上永田,,37.210043,140.581625,Z2759-1,,0,,,
2760-1,,地我,,37.203948,140.586641,Z2760-1,,0,,,
2761-1,,六地蔵前,,37.228922,140.581123,Z2761-1,,0,,,
2762-1,,遅沢,,37.236578,140.570915,Z2762-1,,0,,,
2762-2,,遅沢,,37.236530,140.571109,Z2762-2,,0,,,
2763-1,,宮の前,,37.194302,140.583347,Z2763-1,,0,,,
2764-1,,北方,,37.190805,140.582693,Z2764-1,,0,,,
2765-1,,田麦入口,,37.189329,140.572784,Z2765-1,,0,,,
2766-1,,蛇石,,37.187980,140.569262,Z2766-1,,0,,,
2767-1,,小平小学校,,37.185422,140.566207,Z2767-1,,0,,,
2768-1,,正門前,,37.184809,140.565171,Z2768-1,,0,,,
2769-1,,後川,,37.186426,140.563109,Z2769-1,,0,,,
2770-1,,フードセンターヤブキ,,37.186077,140.560569,Z2770-1,,0,,,
2771-1,,清水,,37.183400,140.554642,Z2771-1,,0,,,
2772-1,,下田,,37.175910,140.544769,Z2772-1,,0,,,
2773-1,,暮坪,,37.173267,140.539669,Z2773-1,,0,,,
2774-1,,大河内,,37.165549,140.533741,Z2774-1,,0,,,
2775-1,,小林,,37.162057,140.525941,Z2775-1,,0,,,
2776-1,,矢造,,37.154218,140.516755,Z2776-1,,0,,,
2777-1,,大塚,,37.151210,140.507970,Z2777-1,,0,,,
2778-1,,山下入口,,37.150520,140.505700,Z2778-1,,0,,,
2779-1,,高野,,37.152001,140.496345,Z2779-1,,0,,,
2780-1,,水車,,37.152943,140.485630,Z2780-1,,0,,,
2781-1,,川入,,37.151843,140.479810,Z2781-1,,0,,,
2782-1,,上双里,,37.146740,140.476659,Z2782-1,,0,,,
2782-2,,上双里,,37.146281,140.478252,Z2782-2,,0,,,
2783-1,,北山形入口,,37.147013,140.473399,Z2783-1,,0,,,
2783-2,,北山形入口,,37.146782,140.474848,Z2783-2,,0,,,
2784-1,,中学校入口,,37.149315,140.464967,Z2784-1,,0,,,
2784-2,,中学校入口,,37.149481,140.466222,Z2784-2,,0,,,
2785-1,,石川営業所,,37.148563,140.462746,Z2785-1,,0,,,
2785-2,,石川営業所,,37.148453,140.462555,Z2785-2,,0,,,
2785-3,,石川営業所,,37.148279,140.462328,Z2785-3,,0,,,
2787-1,,妙見,,37.285917,140.380440,Z2787-1,,0,,,
2787-2,,妙見,,37.285945,140.380227,Z2787-2,,0,,,
2788-1,,上野中町,,37.284270,140.384749,Z2788-1,,0,,,
2788-2,,上野中町,,37.284194,140.384962,Z2788-2,,0,,,
2789-1,,北上野,,37.283559,140.388206,Z2789-1,,0,,,
2789-2,,北上野,,37.283511,140.388173,Z2789-2,,0,,,
2790-1,,二ツ池,,37.281264,140.392269,Z2790-1,,0,,,
2790-2,,二ツ池,,37.281535,140.391676,Z2790-2,,0,,,
2791-1,,根岸,,37.279230,140.396171,Z2791-1,,0,,,
2792-1,,和田,,37.276410,140.404311,Z2792-1,,0,,,
2793-1,,川東,,37.271284,140.408413,Z2793-1,,0,,,
2793-2,,川東,,37.271248,140.408154,Z2793-2,,0,,,
2794-1,,殿田,,37.270839,140.411146,Z2794-1,,0,,,
2794-2,,殿田,,37.270663,140.411671,Z2794-2,,0,,,
2795-1,,中山,,37.265901,140.417502,Z2795-1,,0,,,
2796-1,,大東小入口,,37.263600,140.421184,Z2796-1,,0,,,
2797-1,,雨田,,37.261112,140.423707,Z2797-1,,0,,,
2798-1,,記念碑,,37.254584,140.429488,Z2798-1,,0,,,
2799-1,,大栗,,37.252499,140.438551,Z2799-1,,0,,,
2800-1,,中津沢,,37.246468,140.443372,Z2800-1,,0,,,
2801-1,,大森田,,37.240102,140.448869,Z2801-1,,0,,,
2802-1,,狸森,,37.235069,140.449150,Z2802-1,,0,,,
2803-1,,新田,,37.230396,140.451982,Z2803-1,,0,,,
2804-1,,小泉,,37.222209,140.452740,Z2804-1,,0,,,
2805-1,,北須釜,,37.220504,140.448794,Z2805-1,,0,,,
2806-1,,明神前,,37.218050,140.448320,Z2806-1,,0,,,
2807-1,,奥平,,37.213050,140.450173,Z2807-1,,0,,,
2807-2,,奥平,,37.212558,140.450596,Z2807-2,,0,,,
2808-1,,北の宿,,37.207792,140.454242,Z2808-1,,0,,,
2808-2,,北の宿,,37.208039,140.454162,Z2808-2,,0,,,
2809-1,,南宿,,37.204618,140.454674,Z2809-1,,0,,,
2810-1,,石川坂,,37.198478,140.459110,Z2810-1,,0,,,
2811-1,,藤越坂,,37.191269,140.458883,Z2811-1,,0,,,
2812-1,,一本松,,37.184044,140.460401,Z2812-1,,0,,,
2813-1,,母畑自治センター前,,37.179146,140.464523,Z2813-1,,0,,,
2814-1,,母畑元湯,,37.176023,140.467375,Z2814-1,,0,,,
2815-1,,中の湯,,37.173285,140.468765,Z2815-1,,0,,,
2816-1,,下の湯,,37.167074,140.468797,Z2816-1,,0,,,
2817-1,,関場,,37.162284,140.468724,Z2817-1,,0,,,
2818-1,,屋敷入,,37.156831,140.464235,Z2818-1,,0,,,
2819-1,,天狗の入り,,37.154719,140.459614,Z2819-1,,0,,,
2820-1,,石川北町,,37.152611,140.457081,Z2820-1,,0,,,
2821-1,,北町中通り,,37.150100,140.455496,Z2821-1,,0,,,
2822-1,,新町四ツ角,,37.147969,140.455871,Z2822-1,,0,,,
2823-1,,石川南町,,37.146252,140.454831,Z2823-1,,0,,,
2823-2,,石川南町,,37.146837,140.455156,Z2823-2,,0,,,
2824-1,,石川荒町,,37.144009,140.454021,Z2824-1,,0,,,
2824-2,,石川荒町,,37.144096,140.454128,Z2824-2,,0,,,
2825-1,,馬場町,,37.142912,140.452113,Z2825-1,,0,,,
2825-2,,馬場町,,37.142705,140.451982,Z2825-2,,0,,,
2826-1,,古町,,37.143578,140.448634,Z2826-1,,0,,,
2826-2,,古町,,37.143533,140.448988,Z2826-2,,0,,,
2827-1,,当町,,37.142659,140.446391,Z2827-1,,0,,,
2827-2,,当町,,37.142867,140.446895,Z2827-2,,0,,,
2828-1,,石川駅前,,37.140888,140.444383,Z2828-1,,0,,,
2828-2,,石川駅前,,37.140967,140.444478,Z2828-2,,0,,,
2829-1,,三森,,37.151504,140.526014,Z2829-1,,0,,,
2830-1,,泥の草入口,,37.147370,140.535872,Z2830-1,,0,,,
